{"type": "FeatureCollection", "features": [{"type": "Feature", "geometry": {"type": "Point", "coordinates": [11.464108, 55.722527]}, "properties": {"name": "Seas-NVE", "link": "http://www.uppladdning.nu/SiteDetail.aspx?id=8bdc9424-fa27-496a-b1d8-22e8c6b64c74", "type": "Public", "description": null}}, {"type": "Feature", "geometry": {"type": "Point", "coordinates": [10.609164, 55.059914]}, "properties": {"name": "Alm. Brand Bank", "link": "http://www.uppladdning.nu/SiteDetail.aspx?id=1762e952-8a99-41d3-80f4-7fb315bf35b9", "type": "Public", "description": null}}, {"type": "Feature", "geometry": {"type": "Point", "coordinates": [12.09938, 55.641159]}, "properties": {"name": "Butikscentret Ro'torv", "link": "http://www.uppladdning.nu/SiteDetail.aspx?id=b5431533-3171-4454-9001-a1474c80fb34", "type": "Public", "description": null}}, {"type": "Feature", "geometry": {"type": "Point", "coordinates": [10.031981, 56.460351]}, "properties": {"name": "Blegdammen Randers", "link": "http://www.uppladdning.nu/SiteDetail.aspx?id=58b5437d-0a8a-401c-8078-4edf7008aaa0", "type": "Public", "description": null}}, {"type": "Feature", "geometry": {"type": "Point", "coordinates": [12.568287, 55.680647]}, "properties": {"name": "Parkeringspladser i N\u00f8rre Voldgade", "link": "http://www.uppladdning.nu/SiteDetail.aspx?id=21e6f6a8-69a2-448b-bcad-dd118c9fbd37", "type": "Public", "description": null}}, {"type": "Feature", "geometry": {"type": "Point", "coordinates": [8.664964, 56.959955]}, "properties": {"name": "Niels S. Nielsen", "link": "http://www.uppladdning.nu/SiteDetail.aspx?id=470ff854-5e6d-4f24-b4a7-e0558963e0b2", "type": "Public", "description": null}}, {"type": "Feature", "geometry": {"type": "Point", "coordinates": [8.696793, 56.95504]}, "properties": {"name": "Claus S\u00f8rensen", "link": "http://www.uppladdning.nu/SiteDetail.aspx?id=ed6a7777-c98b-4519-a856-c43d1e8547e7", "type": "Public", "description": null}}, {"type": "Feature", "geometry": {"type": "Point", "coordinates": [12.456648, 55.678708]}, "properties": {"name": "R\u00f8dovre Centrum", "link": "http://www.uppladdning.nu/SiteDetail.aspx?id=0cc7d1c0-bcf5-4e31-ba11-38b395cff0a8", "type": "Public", "description": null}}, {"type": "Feature", "geometry": {"type": "Point", "coordinates": [10.025766, 56.482411]}, "properties": {"name": "F\u00f8tex Randers", "link": "http://www.uppladdning.nu/SiteDetail.aspx?id=4dc23775-6f2b-47c8-b575-955aebe4cb48", "type": "Public", "description": null}}, {"type": "Feature", "geometry": {"type": "Point", "coordinates": [11.108535, 55.348161]}, "properties": {"name": "Storeb\u00e6lt Kundeservice", "link": "http://www.uppladdning.nu/SiteDetail.aspx?id=9a6c0aad-bda7-4e86-bf99-489302d5b8b2", "type": "Public", "description": null}}, {"type": "Feature", "geometry": {"type": "Point", "coordinates": [9.838366, 56.897924]}, "properties": {"name": "Shell Danmark St\u00f8vring", "link": "http://www.uppladdning.nu/SiteDetail.aspx?id=a9cd192a-9041-4449-a743-1edc86dfe0c9", "type": "Public", "description": null}}, {"type": "Feature", "geometry": {"type": "Point", "coordinates": [10.040328, 56.457909]}, "properties": {"name": "Shell Danmark Randers", "link": "http://www.uppladdning.nu/SiteDetail.aspx?id=6cef9761-ede8-4a69-899e-67d5550383e4", "type": "Public", "description": null}}, {"type": "Feature", "geometry": {"type": "Point", "coordinates": [10.677447, 56.213451]}, "properties": {"name": "Shell Denmark Ebeltoft", "link": "http://www.uppladdning.nu/SiteDetail.aspx?id=6c6feb94-9fee-4e53-bf98-ae1fcf43f1d9", "type": "Public", "description": null}}, {"type": "Feature", "geometry": {"type": "Point", "coordinates": [12.543458, 55.668513]}, "properties": {"name": "P-anl\u00e6gget i Rejsbygade", "link": "http://www.uppladdning.nu/SiteDetail.aspx?id=bbd2b626-6e7b-49dd-9c1b-4c262bddb6a9", "type": "Public", "description": null}}, {"type": "Feature", "geometry": {"type": "Point", "coordinates": [12.581298, 55.701345]}, "properties": {"name": "Petersborgvej 1", "link": "http://www.uppladdning.nu/SiteDetail.aspx?id=3c6ad173-13a2-4142-8b76-13007585882e", "type": "Public", "description": null}}, {"type": "Feature", "geometry": {"type": "Point", "coordinates": [12.580547, 55.704846]}, "properties": {"name": "N\u00f8jsomhedsvej 19", "link": "http://www.uppladdning.nu/SiteDetail.aspx?id=7dca67d7-4c60-4624-92f2-70155f78b4b3", "type": "Public", "description": null}}, {"type": "Feature", "geometry": {"type": "Point", "coordinates": [9.935726, 57.046206]}, "properties": {"name": "Aalborg S\u00f8mandshjem", "link": "http://www.uppladdning.nu/SiteDetail.aspx?id=5c3e0d10-f089-4b5a-a8e5-360c638b786d", "type": "Public", "description": null}}, {"type": "Feature", "geometry": {"type": "Point", "coordinates": [12.197615, 55.649136]}, "properties": {"name": "Hedehusene Station", "link": "http://www.uppladdning.nu/SiteDetail.aspx?id=a91888e4-2d6c-4852-b7ca-ea5efb966bc4", "type": "Public", "description": null}}, {"type": "Feature", "geometry": {"type": "Point", "coordinates": [9.721244, 55.567297]}, "properties": {"name": "F\u00f8tex Fredericia", "link": "http://www.uppladdning.nu/SiteDetail.aspx?id=081b3ad6-51a7-401e-b12d-14b06a99a938", "type": "Public", "description": null}}, {"type": "Feature", "geometry": {"type": "Point", "coordinates": [10.377224, 55.394771]}, "properties": {"name": "F\u00f8tex Odense C", "link": "http://www.uppladdning.nu/SiteDetail.aspx?id=86502083-0903-43a1-8e59-d20815de13cf", "type": "Public", "description": null}}, {"type": "Feature", "geometry": {"type": "Point", "coordinates": [10.84025, 55.297288]}, "properties": {"name": "Monarch Knudshoved", "link": "http://www.uppladdning.nu/SiteDetail.aspx?id=a97611e4-02c0-4450-b27f-1ecfcb58a0bf", "type": "Public", "description": null}}, {"type": "Feature", "geometry": {"type": "Point", "coordinates": [14.692475, 55.101375]}, "properties": {"name": "Snellemark centret", "link": "http://www.uppladdning.nu/SiteDetail.aspx?id=ae16c711-63a7-4005-b08d-f77cab477b11", "type": "Public", "description": null}}, {"type": "Feature", "geometry": {"type": "Point", "coordinates": [11.789017, 55.453181]}, "properties": {"name": "F\u00f8tex Ringsted", "link": "http://www.uppladdning.nu/SiteDetail.aspx?id=08f0c0af-76c1-41c6-9308-f6dc85e51825", "type": "Public", "description": null}}, {"type": "Feature", "geometry": {"type": "Point", "coordinates": [12.561858, 55.661308]}, "properties": {"name": "Fisketorvet", "link": "http://www.uppladdning.nu/SiteDetail.aspx?id=fa6cec36-8d89-40fa-9b08-a5135df1ebe1", "type": "Public", "description": null}}, {"type": "Feature", "geometry": {"type": "Point", "coordinates": [10.150995, 56.166678]}, "properties": {"name": "Hotell Scandic \u00c5rhus Vest", "link": "http://www.uppladdning.nu/SiteDetail.aspx?id=568470b3-9ea1-40bb-9cdb-6369b92838d6", "type": "Public", "description": null}}, {"type": "Feature", "geometry": {"type": "Point", "coordinates": [9.126589, 55.733449]}, "properties": {"name": "\u00c5stvej i Billund ved Hotel Legoland", "link": "http://www.uppladdning.nu/SiteDetail.aspx?id=54cd6769-f49a-4b2c-80e2-f37ba61eebba", "type": "Public", "description": null}}, {"type": "Feature", "geometry": {"type": "Point", "coordinates": [9.876267, 57.005627]}, "properties": {"name": "Bilka Skalborg", "link": "http://www.uppladdning.nu/SiteDetail.aspx?id=5c2ce284-2966-429d-8d82-4d04f9cc6b5f", "type": "Public", "description": null}}, {"type": "Feature", "geometry": {"type": "Point", "coordinates": [12.294898, 55.582978]}, "properties": {"name": "F\u00f8tex Greve", "link": "http://www.uppladdning.nu/SiteDetail.aspx?id=9f98a359-0124-4ad2-bac0-44b5b20028c5", "type": "Public", "description": null}}, {"type": "Feature", "geometry": {"type": "Point", "coordinates": [12.40033, 55.665538]}, "properties": {"name": "Glostrup Shoppingcenter", "link": "http://www.uppladdning.nu/SiteDetail.aspx?id=55533ae4-cbbc-484b-b7ca-af82572f7c65", "type": "Public", "description": null}}, {"type": "Feature", "geometry": {"type": "Point", "coordinates": [11.353169, 55.390719]}, "properties": {"name": "Bilka Slagelse", "link": "http://www.uppladdning.nu/SiteDetail.aspx?id=24acfca9-255e-4af6-a599-c797bbaa02e6", "type": "Public", "description": null}}, {"type": "Feature", "geometry": {"type": "Point", "coordinates": [12.394769, 55.731585]}, "properties": {"name": "DTU Ballerup", "link": "http://www.uppladdning.nu/SiteDetail.aspx?id=137b402a-5571-4150-8bac-768f79b38ca8", "type": "Public", "description": null}}, {"type": "Feature", "geometry": {"type": "Point", "coordinates": [9.764306, 55.510639]}, "properties": {"name": "Middelfart Supercharger", "link": "http://www.uppladdning.nu/SiteDetail.aspx?id=34ca1fa9-cbe6-4fdb-a993-d11b4ac3acad", "type": "Public", "description": null}}, {"type": "Feature", "geometry": {"type": "Point", "coordinates": [10.055584, 56.433015]}, "properties": {"name": "RANDERS SUPERCHARGER", "link": "http://www.uppladdning.nu/SiteDetail.aspx?id=2f9ab952-b81f-4cab-962b-721121198350", "type": "Public", "description": null}}, {"type": "Feature", "geometry": {"type": "Point", "coordinates": [10.615458, 55.063903]}, "properties": {"name": "F\u00f8tex Svendborg", "link": "http://www.uppladdning.nu/SiteDetail.aspx?id=fac86147-a302-4768-9157-6562690f368b", "type": "Public", "description": null}}, {"type": "Feature", "geometry": {"type": "Point", "coordinates": [9.75926, 55.563229]}, "properties": {"name": "Carolines Plads - Fredericia", "link": "http://www.uppladdning.nu/SiteDetail.aspx?id=823d35f1-a55b-40da-a248-9208c3116c13", "type": "Public", "description": null}}, {"type": "Feature", "geometry": {"type": "Point", "coordinates": [10.352275, 55.367129]}, "properties": {"name": "Energi Fyn", "link": "http://www.uppladdning.nu/SiteDetail.aspx?id=ead8caff-8e62-4d1a-b072-89a7ac5721b3", "type": "Public", "description": null}}, {"type": "Feature", "geometry": {"type": "Point", "coordinates": [10.433151, 55.378046]}, "properties": {"name": "Bilka Odense", "link": "http://www.uppladdning.nu/SiteDetail.aspx?id=631c03a5-431e-40a1-a3f8-aa1f959655f2", "type": "Public", "description": null}}, {"type": "Feature", "geometry": {"type": "Point", "coordinates": [10.381426, 55.393572]}, "properties": {"name": "Filosoffen - Odense", "link": "http://www.uppladdning.nu/SiteDetail.aspx?id=87ebf3a2-3b12-46b9-b809-d57f255cb6cd", "type": "Public", "description": null}}, {"type": "Feature", "geometry": {"type": "Point", "coordinates": [9.469676, 55.488413]}, "properties": {"name": "\u00c5leg\u00e5rden - Kolding", "link": "http://www.uppladdning.nu/SiteDetail.aspx?id=9d33b0fa-1aab-402e-b0ee-dfd80dc34f6b", "type": "Public", "description": null}}, {"type": "Feature", "geometry": {"type": "Point", "coordinates": [9.461844, 55.513252]}, "properties": {"name": "Kolding Storcenter", "link": "http://www.uppladdning.nu/SiteDetail.aspx?id=e7614844-efa6-41c8-a62e-54810614d880", "type": "Public", "description": null}}, {"type": "Feature", "geometry": {"type": "Point", "coordinates": [10.370327, 55.37826]}, "properties": {"name": "Odense Zoo", "link": "http://www.uppladdning.nu/SiteDetail.aspx?id=caf93c05-e159-42cd-8f29-6112192a1118", "type": "Public", "description": null}}, {"type": "Feature", "geometry": {"type": "Point", "coordinates": [10.446561, 55.371597]}, "properties": {"name": "Odense Congress Center ", "link": "http://www.uppladdning.nu/SiteDetail.aspx?id=bf8acec0-c803-4b7c-9ad2-c96484ecb226", "type": "Public", "description": null}}, {"type": "Feature", "geometry": {"type": "Point", "coordinates": [9.351168, 54.832059]}, "properties": {"name": "Industrivejens Grillbar - Padborg", "link": "http://www.uppladdning.nu/SiteDetail.aspx?id=dd6c27bc-68a6-483b-959a-fa3ec1e7c726", "type": "Public", "description": null}}, {"type": "Feature", "geometry": {"type": "Point", "coordinates": [9.419194, 55.046224]}, "properties": {"name": "F\u00f8tex Aabenraa", "link": "http://www.uppladdning.nu/SiteDetail.aspx?id=fcd94a48-0807-4e02-b3ba-860791f75e13", "type": "Public", "description": null}}, {"type": "Feature", "geometry": {"type": "Point", "coordinates": [9.481971, 55.255615]}, "properties": {"name": "F\u00f8tex Haderslev", "link": "http://www.uppladdning.nu/SiteDetail.aspx?id=421fb968-97b1-4db3-ad19-4a4ee110432f", "type": "Public", "description": null}}, {"type": "Feature", "geometry": {"type": "Point", "coordinates": [9.130222, 55.736015]}, "properties": {"name": "Parkering Legoland", "link": "http://www.uppladdning.nu/SiteDetail.aspx?id=018de518-99d2-47bb-ba4d-85f1bc91be93", "type": "Public", "description": null}}, {"type": "Feature", "geometry": {"type": "Point", "coordinates": [10.04226, 57.455813]}, "properties": {"name": "Hj\u00f8rring supercharger", "link": "http://www.uppladdning.nu/SiteDetail.aspx?id=0dd77e1c-3dc7-4c8b-a015-faf1e509c483", "type": "Public", "description": null}}, {"type": "Feature", "geometry": {"type": "Point", "coordinates": [12.157383, 55.486727]}, "properties": {"name": "K\u00f8ge Handelsskole", "link": "http://www.uppladdning.nu/SiteDetail.aspx?id=3150c142-ced6-4943-a920-be5f445d3de7", "type": "Public", "description": null}}, {"type": "Feature", "geometry": {"type": "Point", "coordinates": [14.697545, 55.101601]}, "properties": {"name": "Snellemark", "link": "http://www.uppladdning.nu/SiteDetail.aspx?id=70174cb9-2d95-41cd-9eb6-6db2d273b02d", "type": "Public", "description": null}}, {"type": "Feature", "geometry": {"type": "Point", "coordinates": [9.759228, 55.496628]}, "properties": {"name": "F\u00f8tex Middelfart", "link": "http://www.uppladdning.nu/SiteDetail.aspx?id=4cf36626-0ac6-4d29-95ae-7cbbd0694f4d", "type": "Public", "description": null}}, {"type": "Feature", "geometry": {"type": "Point", "coordinates": [9.809268, 55.041543]}, "properties": {"name": "Universe - Nordborg", "link": "http://www.uppladdning.nu/SiteDetail.aspx?id=e99bb01e-c303-4647-ba27-5b715287975c", "type": "Public", "description": null}}, {"type": "Feature", "geometry": {"type": "Point", "coordinates": [9.786179, 54.962168]}, "properties": {"name": "S\u00f8nderborg Lufthavn", "link": "http://www.uppladdning.nu/SiteDetail.aspx?id=70b1c1e9-a197-4286-92af-c68ae3972cb7", "type": "Public", "description": null}}, {"type": "Feature", "geometry": {"type": "Point", "coordinates": [9.777671, 54.913678]}, "properties": {"name": "Bag Alsion", "link": "http://www.uppladdning.nu/SiteDetail.aspx?id=ae223953-9e14-44e2-8aeb-191e81d41b39", "type": "Public", "description": null}}, {"type": "Feature", "geometry": {"type": "Point", "coordinates": [9.779377, 54.912504]}, "properties": {"name": "Ved Alsion", "link": "http://www.uppladdning.nu/SiteDetail.aspx?id=357c9324-a7c7-442d-b133-1dc4f8adbe50", "type": "Public", "description": null}}, {"type": "Feature", "geometry": {"type": "Point", "coordinates": [9.786549, 54.9104]}, "properties": {"name": "N\u00f8rrebro P-plads - S\u00f8nderborg", "link": "http://www.uppladdning.nu/SiteDetail.aspx?id=a64f52ac-b339-4872-9520-2c986bdc02e5", "type": "Public", "description": null}}, {"type": "Feature", "geometry": {"type": "Point", "coordinates": [9.805909, 54.929577]}, "properties": {"name": "Scandic - S\u00f8nderborg", "link": "http://www.uppladdning.nu/SiteDetail.aspx?id=526b051e-ffac-4413-b2ea-9e1c865e5db7", "type": "Public", "description": null}}, {"type": "Feature", "geometry": {"type": "Point", "coordinates": [9.793538, 54.913953]}, "properties": {"name": "F\u00f8tex S\u00f8nderborg", "link": "http://www.uppladdning.nu/SiteDetail.aspx?id=e96ac762-d4cd-4fb3-b84f-e0ca2eadf347", "type": "Public", "description": null}}, {"type": "Feature", "geometry": {"type": "Point", "coordinates": [8.770313, 55.333117]}, "properties": {"name": "F\u00f8tex Ribe", "link": "http://www.uppladdning.nu/SiteDetail.aspx?id=f5ea6ce1-a99e-4d4c-826d-19bc021632d6", "type": "Public", "description": null}}, {"type": "Feature", "geometry": {"type": "Point", "coordinates": [9.148135, 55.482842]}, "properties": {"name": "Shell Vejen", "link": "http://www.uppladdning.nu/SiteDetail.aspx?id=648f4412-eaa0-4036-a8aa-0e86eff09a45", "type": "Public", "description": null}}, {"type": "Feature", "geometry": {"type": "Point", "coordinates": [8.590654, 55.524817]}, "properties": {"name": "Shell Korskro", "link": "http://www.uppladdning.nu/SiteDetail.aspx?id=f4262d2d-6062-452f-95e7-f6c64e986e9b", "type": "Public", "description": null}}, {"type": "Feature", "geometry": {"type": "Point", "coordinates": [8.456654, 55.509975]}, "properties": {"name": "Bilka Esbjerg", "link": "http://www.uppladdning.nu/SiteDetail.aspx?id=96f84fbb-31e1-4431-8fec-e8582c2c3837", "type": "Public", "description": null}}, {"type": "Feature", "geometry": {"type": "Point", "coordinates": [8.456039, 55.469021]}, "properties": {"name": "N\u00f8rregade - Esbjerg", "link": "http://www.uppladdning.nu/SiteDetail.aspx?id=8617670c-c3f1-450f-9133-7fb8e5e1676f", "type": "Public", "description": null}}, {"type": "Feature", "geometry": {"type": "Point", "coordinates": [8.45259, 55.465149]}, "properties": {"name": "Borgergade - Esbjerg", "link": "http://www.uppladdning.nu/SiteDetail.aspx?id=3cb605b7-ac47-4e6f-8862-1aecaddc71a3", "type": "Public", "description": null}}, {"type": "Feature", "geometry": {"type": "Point", "coordinates": [8.445377, 55.465651]}, "properties": {"name": "F\u00f8tex Esbjerg", "link": "http://www.uppladdning.nu/SiteDetail.aspx?id=568276db-3853-47cd-8317-1cf5dec1dd1e", "type": "Public", "description": null}}, {"type": "Feature", "geometry": {"type": "Point", "coordinates": [12.163113, 55.489025]}, "properties": {"name": "K\u00f8ge Supercharger", "link": "http://www.uppladdning.nu/SiteDetail.aspx?id=614601bb-fc49-4684-980e-e514cb5f4a72", "type": "Public", "description": null}}, {"type": "Feature", "geometry": {"type": "Point", "coordinates": [9.53079, 55.705341]}, "properties": {"name": "Bryggen - Vejle", "link": "http://www.uppladdning.nu/SiteDetail.aspx?id=db7156aa-a06e-41f9-abd2-3c69c8bd6ce4", "type": "Public", "description": null}}, {"type": "Feature", "geometry": {"type": "Point", "coordinates": [12.58685, 56.025616]}, "properties": {"name": "Shell Helsing\u00f8r", "link": "http://www.uppladdning.nu/SiteDetail.aspx?id=eb8a1f9b-7f50-4747-9a3c-92472cc29280", "type": "Public", "description": null}}, {"type": "Feature", "geometry": {"type": "Point", "coordinates": [12.550984, 55.64897]}, "properties": {"name": "Clever K\u00f8benhavn", "link": "http://www.uppladdning.nu/SiteDetail.aspx?id=0a016805-8bb1-478e-b228-7dea531e7d70", "type": "Public", "description": null}}, {"type": "Feature", "geometry": {"type": "Point", "coordinates": [9.00689, 56.135338]}, "properties": {"name": "Bilka Herning", "link": "http://www.uppladdning.nu/SiteDetail.aspx?id=f2f0e209-f54c-487b-91b4-83854e45e0b2", "type": "Public", "description": null}}, {"type": "Feature", "geometry": {"type": "Point", "coordinates": [9.695193, 56.783315]}, "properties": {"name": "Circle K", "link": "http://www.uppladdning.nu/SiteDetail.aspx?id=a6366298-86e5-430e-81ae-bfed2b3e67e9", "type": "Public", "description": null}}, {"type": "Feature", "geometry": {"type": "Point", "coordinates": [10.67884, 56.202741]}, "properties": {"name": "F\u00f8tex Ebeltoft", "link": "http://www.uppladdning.nu/SiteDetail.aspx?id=13e6e933-c55e-422a-8a96-df34e8effe7f", "type": "Public", "description": null}}, {"type": "Feature", "geometry": {"type": "Point", "coordinates": [10.191126, 56.157225]}, "properties": {"name": "Shell Silkeborgvej - Aarhus", "link": "http://www.uppladdning.nu/SiteDetail.aspx?id=979c6373-a251-46b6-957d-4fb0f7efc24d", "type": "Public", "description": null}}, {"type": "Feature", "geometry": {"type": "Point", "coordinates": [10.103602, 56.182863]}, "properties": {"name": "Bilka Tilst", "link": "http://www.uppladdning.nu/SiteDetail.aspx?id=ecc01973-909f-4c68-a4b6-59fb66ef710b", "type": "Public", "description": null}}, {"type": "Feature", "geometry": {"type": "Point", "coordinates": [9.8517, 55.858505]}, "properties": {"name": "Bilka Horsens", "link": "http://www.uppladdning.nu/SiteDetail.aspx?id=b4c61bd7-fc17-4297-8124-64985e5f534f", "type": "Public", "description": null}}, {"type": "Feature", "geometry": {"type": "Point", "coordinates": [9.58365, 55.723788]}, "properties": {"name": "Bilka Vejle", "link": "http://www.uppladdning.nu/SiteDetail.aspx?id=b0ea851d-58f4-4262-816c-fe8b55889733", "type": "Public", "description": null}}, {"type": "Feature", "geometry": {"type": "Point", "coordinates": [11.355947, 55.400208]}, "properties": {"name": "Ridehuspladsen - Slagelse", "link": "http://www.uppladdning.nu/SiteDetail.aspx?id=3926887d-88d7-4bcc-9569-76ebcd24ed74", "type": "Public", "description": null}}, {"type": "Feature", "geometry": {"type": "Point", "coordinates": [11.139042, 55.330047]}, "properties": {"name": "Cityparkeringen - Kors\u00f8r ", "link": "http://www.uppladdning.nu/SiteDetail.aspx?id=81e0bdba-f7f4-4262-b064-7e89c31875d0", "type": "Public", "description": null}}, {"type": "Feature", "geometry": {"type": "Point", "coordinates": [10.065665, 56.178002]}, "properties": {"name": "Rasteplads Pedersminde E45", "link": "http://www.uppladdning.nu/SiteDetail.aspx?id=193d6409-8e5e-45d6-b5cc-6e0d8d3b2548", "type": "Public", "description": null}}, {"type": "Feature", "geometry": {"type": "Point", "coordinates": [10.066073, 56.175888]}, "properties": {"name": "Rasteplads Blankh\u00f8j E45", "link": "http://www.uppladdning.nu/SiteDetail.aspx?id=fca46c18-e084-47c9-8972-eea3caa7d3e0", "type": "Public", "description": null}}, {"type": "Feature", "geometry": {"type": "Point", "coordinates": [9.562716, 55.64063]}, "properties": {"name": "Rasteplads Sk\u00e6rup \u00d8st E45", "link": "http://www.uppladdning.nu/SiteDetail.aspx?id=be9520cd-159e-4efd-b797-b87f09747ee9", "type": "Public", "description": null}}, {"type": "Feature", "geometry": {"type": "Point", "coordinates": [10.188403, 55.395428]}, "properties": {"name": "Rasteplads Kildebjerg Nord E20", "link": "http://www.uppladdning.nu/SiteDetail.aspx?id=851a359a-861d-4dab-8955-464f7557e331", "type": "Public", "description": null}}, {"type": "Feature", "geometry": {"type": "Point", "coordinates": [10.188569, 55.39357]}, "properties": {"name": "Rasteplads Kildebjerg Syd E20", "link": "http://www.uppladdning.nu/SiteDetail.aspx?id=92e93d01-10cc-4485-96e7-63315a02ca92", "type": "Public", "description": null}}, {"type": "Feature", "geometry": {"type": "Point", "coordinates": [12.228768, 55.560392]}, "properties": {"name": "Rasteplads Karlslunde Vest E20/E47", "link": "http://www.uppladdning.nu/SiteDetail.aspx?id=ceb9d351-9b64-425b-af89-505bd9a7b7d4", "type": "Public", "description": null}}, {"type": "Feature", "geometry": {"type": "Point", "coordinates": [12.231123, 55.560494]}, "properties": {"name": "Rasteplads Karlslunde \u00d8st E20/E47", "link": "http://www.uppladdning.nu/SiteDetail.aspx?id=815f5f32-3c0c-4ed6-999a-92eda350ea30", "type": "Public", "description": null}}, {"type": "Feature", "geometry": {"type": "Point", "coordinates": [11.607992, 55.455067]}, "properties": {"name": "Rasteplads Tuels\u00f8 Nord E20 ", "link": "http://www.uppladdning.nu/SiteDetail.aspx?id=a236a8e5-d56c-4bf6-a60d-00939afaa791", "type": "Public", "description": null}}, {"type": "Feature", "geometry": {"type": "Point", "coordinates": [11.5964, 55.455573]}, "properties": {"name": "Rasteplads Tuels\u00f8 Syd E20 ", "link": "http://www.uppladdning.nu/SiteDetail.aspx?id=8284f628-dce3-485c-9dc2-c452bec34e15", "type": "Public", "description": null}}, {"type": "Feature", "geometry": {"type": "Point", "coordinates": [12.28529, 55.659964]}, "properties": {"name": "Ikea Taastrup", "link": "http://www.uppladdning.nu/SiteDetail.aspx?id=fd0dbb49-a4bc-46b1-92d0-f249989663a6", "type": "Public", "description": null}}, {"type": "Feature", "geometry": {"type": "Point", "coordinates": [9.876524, 57.08578]}, "properties": {"name": "Aalborg Lufthavn", "link": "http://www.uppladdning.nu/SiteDetail.aspx?id=170e30ea-e4c0-49cb-9a96-c33c30539a89", "type": "Public", "description": null}}, {"type": "Feature", "geometry": {"type": "Point", "coordinates": [8.859284, 56.793075]}, "properties": {"name": "Mors\u00f8 kommune", "link": "http://www.uppladdning.nu/SiteDetail.aspx?id=b666446c-f0d3-4503-858f-b1ecf737ad1e", "type": "Public", "description": null}}, {"type": "Feature", "geometry": {"type": "Point", "coordinates": [9.556051, 55.498351]}, "properties": {"name": "Hotel Koldingfjord", "link": "http://www.uppladdning.nu/SiteDetail.aspx?id=ec46a09e-6bec-4882-acf3-d61e18e3a04b", "type": "Public", "description": null}}, {"type": "Feature", "geometry": {"type": "Point", "coordinates": [9.360839, 55.068158]}, "properties": {"name": "Tesla Supercharger R\u00f8dekro", "link": "http://www.uppladdning.nu/SiteDetail.aspx?id=d74e4726-2e26-4b1d-a9a0-bb218baeb431", "type": "Public", "description": null}}, {"type": "Feature", "geometry": {"type": "Point", "coordinates": [11.9875, 54.948368]}, "properties": {"name": "Rasteplads Far\u00f8 E47", "link": "http://www.uppladdning.nu/SiteDetail.aspx?id=e962b6bf-c558-4ea9-9f98-700ca1a06767", "type": "Public", "description": null}}, {"type": "Feature", "geometry": {"type": "Point", "coordinates": [9.558096, 55.642092]}, "properties": {"name": "Rasteplads Sk\u00e6rup Vest E45", "link": "http://www.uppladdning.nu/SiteDetail.aspx?id=8e923d4e-ec42-40d4-a843-b5b99e79116b", "type": "Public", "description": null}}, {"type": "Feature", "geometry": {"type": "Point", "coordinates": [12.0893, 55.637617]}, "properties": {"name": "Roskilde Sygehus ", "link": "http://www.uppladdning.nu/SiteDetail.aspx?id=82eb56d5-e208-44b5-8140-2bd7906d0106", "type": "Public", "description": null}}, {"type": "Feature", "geometry": {"type": "Point", "coordinates": [12.082179, 55.637258]}, "properties": {"name": "F\u00f8tex Roskilde Stationscenter", "link": "http://www.uppladdning.nu/SiteDetail.aspx?id=116ca777-5685-4530-a730-8a2f914273e6", "type": "Public", "description": null}}, {"type": "Feature", "geometry": {"type": "Point", "coordinates": [11.716404, 55.712716]}, "properties": {"name": "Holb\u00e6k Sygehus ", "link": "http://www.uppladdning.nu/SiteDetail.aspx?id=5be15026-f73f-40b0-a21f-6731ebd3e6c2", "type": "Public", "description": null}}, {"type": "Feature", "geometry": {"type": "Point", "coordinates": [11.71756, 55.714563]}, "properties": {"name": "F\u00f8tex Holb\u00e6k", "link": "http://www.uppladdning.nu/SiteDetail.aspx?id=b2f753ca-3079-442a-aa75-a841240f6410", "type": "Public", "description": null}}, {"type": "Feature", "geometry": {"type": "Point", "coordinates": [11.711715, 55.719394]}, "properties": {"name": "Gasv\u00e6rksgrunden - Holb\u00e6k", "link": "http://www.uppladdning.nu/SiteDetail.aspx?id=2a93f97e-f722-40f4-a8b3-1fb0a911e43b", "type": "Public", "description": null}}, {"type": "Feature", "geometry": {"type": "Point", "coordinates": [11.301069, 55.9762]}, "properties": {"name": "Mols-Linien Odden", "link": "http://www.uppladdning.nu/SiteDetail.aspx?id=1a1e8465-6b7d-4fce-a05b-74ff025dd00c", "type": "Public", "description": null}}, {"type": "Feature", "geometry": {"type": "Point", "coordinates": [11.091203, 55.678929]}, "properties": {"name": "F\u00f8tex Kalundborg", "link": "http://www.uppladdning.nu/SiteDetail.aspx?id=e2736d06-adac-4266-92a2-d1e79c60b89d", "type": "Public", "description": null}}, {"type": "Feature", "geometry": {"type": "Point", "coordinates": [11.089308, 55.67755]}, "properties": {"name": "Baneg\u00e5rdspladsen - Kalundborg ", "link": "http://www.uppladdning.nu/SiteDetail.aspx?id=d67ab693-233c-4603-ba32-79bb12ccbdac", "type": "Public", "description": null}}, {"type": "Feature", "geometry": {"type": "Point", "coordinates": [11.106961, 55.347725]}, "properties": {"name": "Storeb\u00e6lt Camping og Feriecenter Kors\u00f8r", "link": "http://www.uppladdning.nu/SiteDetail.aspx?id=1769eba5-1ba2-40c5-a96f-b5e13976ca84", "type": "Public", "description": null}}, {"type": "Feature", "geometry": {"type": "Point", "coordinates": [9.934674, 57.03665]}, "properties": {"name": "F\u00f8tex Aalborg", "link": "http://www.uppladdning.nu/SiteDetail.aspx?id=bf77c9ff-40ff-4e89-ae14-f594016d6871", "type": "Public", "description": null}}, {"type": "Feature", "geometry": {"type": "Point", "coordinates": [9.927524, 57.047669]}, "properties": {"name": "Friis Shoppingcentret", "link": "http://www.uppladdning.nu/SiteDetail.aspx?id=c0a002fd-48ad-45bf-9f27-5bd52eadcb8c", "type": "Public", "description": null}}, {"type": "Feature", "geometry": {"type": "Point", "coordinates": [9.731416, 55.505122]}, "properties": {"name": "Algade/S\u00f8ndergade - Middelfart", "link": "http://www.uppladdning.nu/SiteDetail.aspx?id=512eae3e-c497-4d49-8cb1-41dd3ca2ff91", "type": "Public", "description": null}}, {"type": "Feature", "geometry": {"type": "Point", "coordinates": [14.708137, 55.091608]}, "properties": {"name": "Bornholms Hospital", "link": "http://www.uppladdning.nu/SiteDetail.aspx?id=52fb9ac5-27cf-4239-861e-5f17c51eed13", "type": "Public", "description": null}}, {"type": "Feature", "geometry": {"type": "Point", "coordinates": [14.69023, 55.102045]}, "properties": {"name": "R\u00f8nne Havn", "link": "http://www.uppladdning.nu/SiteDetail.aspx?id=db1ffa50-2ffe-48ce-9ff2-f3d471980d45", "type": "Public", "description": null}}, {"type": "Feature", "geometry": {"type": "Point", "coordinates": [15.134612, 55.061149]}, "properties": {"name": "E-on Nex\u00f8", "link": "http://www.uppladdning.nu/SiteDetail.aspx?id=b865e71e-696c-46c9-b2e9-e31096d3933c", "type": "Public", "description": null}}, {"type": "Feature", "geometry": {"type": "Point", "coordinates": [9.833293, 55.836734]}, "properties": {"name": "F\u00f8tex Horsens", "link": "http://www.uppladdning.nu/SiteDetail.aspx?id=29928a88-96f3-48aa-a32f-ed4f6c9a5388", "type": "Public", "description": null}}, {"type": "Feature", "geometry": {"type": "Point", "coordinates": [8.242606, 56.092159]}, "properties": {"name": "Netto Ringk\u00f8bing", "link": "http://www.uppladdning.nu/SiteDetail.aspx?id=617a0877-b664-4aa8-b53e-5725e3c1613b", "type": "Public", "description": null}}, {"type": "Feature", "geometry": {"type": "Point", "coordinates": [8.62113, 56.376964]}, "properties": {"name": "Bilka Holstebro", "link": "http://www.uppladdning.nu/SiteDetail.aspx?id=e8994c33-93f4-41a6-9958-6b2267a881d0", "type": "Public", "description": null}}, {"type": "Feature", "geometry": {"type": "Point", "coordinates": [8.692112, 56.951946]}, "properties": {"name": "Netto Thisted", "link": "http://www.uppladdning.nu/SiteDetail.aspx?id=612996e1-38e9-42a5-b995-deb693b0d572", "type": "Public", "description": null}}, {"type": "Feature", "geometry": {"type": "Point", "coordinates": [9.02683, 56.562713]}, "properties": {"name": "F\u00f8tex Skive", "link": "http://www.uppladdning.nu/SiteDetail.aspx?id=93bff5c2-5573-40e5-904a-2a444a6f1b56", "type": "Public", "description": null}}, {"type": "Feature", "geometry": {"type": "Point", "coordinates": [12.478528, 55.711239]}, "properties": {"name": "F\u00f8tex Husum", "link": "http://www.uppladdning.nu/SiteDetail.aspx?id=c323669f-211a-4323-8fed-524486344f5f", "type": "Public", "description": null}}, {"type": "Feature", "geometry": {"type": "Point", "coordinates": [12.29143, 55.929249]}, "properties": {"name": "F\u00f8tex Hiller\u00f8d", "link": "http://www.uppladdning.nu/SiteDetail.aspx?id=3f0e13ed-1525-476f-9880-d6b66e9bd03e", "type": "Public", "description": null}}, {"type": "Feature", "geometry": {"type": "Point", "coordinates": [9.743629, 56.841276]}, "properties": {"name": "Himmerland \u00d8st E45", "link": "http://www.uppladdning.nu/SiteDetail.aspx?id=7e808fdf-d2da-4c59-b1e5-cfdb464114fb", "type": "Public", "description": null}}, {"type": "Feature", "geometry": {"type": "Point", "coordinates": [9.740679, 56.843095]}, "properties": {"name": "Himmerland Vest E45", "link": "http://www.uppladdning.nu/SiteDetail.aspx?id=4c8af47e-e059-40ae-b160-1a91b9088cce", "type": "Public", "description": null}}, {"type": "Feature", "geometry": {"type": "Point", "coordinates": [10.533755, 57.439721]}, "properties": {"name": "E.ON Parallelvej 32 Frederikshavn", "link": "http://www.uppladdning.nu/SiteDetail.aspx?id=fa4667a1-052e-431e-8196-73deaeabe671", "type": "Public", "description": null}}, {"type": "Feature", "geometry": {"type": "Point", "coordinates": [10.501901, 57.333494]}, "properties": {"name": "Sundhedshus S\u00e6by", "link": "http://www.uppladdning.nu/SiteDetail.aspx?id=54c12733-657a-4cdb-bd6f-bf811d51c455", "type": "Public", "description": null}}, {"type": "Feature", "geometry": {"type": "Point", "coordinates": [11.959239, 55.08046]}, "properties": {"name": "Udby Kro", "link": "http://www.uppladdning.nu/SiteDetail.aspx?id=0e611c13-d1e4-4f52-8501-eb6594491799", "type": "Public", "description": null}}, {"type": "Feature", "geometry": {"type": "Point", "coordinates": [9.993945, 57.455241]}, "properties": {"name": "F\u00f8tex Hj\u00f8rring", "link": "http://www.uppladdning.nu/SiteDetail.aspx?id=2d0a7d5c-e277-42d3-b262-e2944205f2b5", "type": "Public", "description": null}}, {"type": "Feature", "geometry": {"type": "Point", "coordinates": [9.544536, 55.708872]}, "properties": {"name": "F\u00f8tex Windfeld-Hansens Centret Vejle", "link": "http://www.uppladdning.nu/SiteDetail.aspx?id=fa714617-53ad-4569-9ae7-6530967e1811", "type": "Public", "description": null}}, {"type": "Feature", "geometry": {"type": "Point", "coordinates": [10.58973, 57.722901]}, "properties": {"name": "Salon sejer (ved fakta ) ", "link": "http://www.uppladdning.nu/SiteDetail.aspx?id=907cae7d-fec6-4a82-8f62-0216e3be1229", "type": "Public", "description": null}}, {"type": "Feature", "geometry": {"type": "Point", "coordinates": [9.330236, 54.825835]}, "properties": {"name": "Rasteplads Fr\u00f8slev \u00d8st E45", "link": "http://www.uppladdning.nu/SiteDetail.aspx?id=ed84211b-cd00-4f77-ba25-8b8214c1c531", "type": "Public", "description": null}}, {"type": "Feature", "geometry": {"type": "Point", "coordinates": [9.332778, 54.832837]}, "properties": {"name": "Rasteplads Fr\u00f8slev Vest E45", "link": "http://www.uppladdning.nu/SiteDetail.aspx?id=0e0940b4-e11c-463b-b396-10ff80a78cb1", "type": "Public", "description": null}}, {"type": "Feature", "geometry": {"type": "Point", "coordinates": [9.394534, 55.512055]}, "properties": {"name": "Rasteplads Harte Syd E20", "link": "http://www.uppladdning.nu/SiteDetail.aspx?id=b9e70837-c1b5-4b56-bad2-e4a56d6b405c", "type": "Public", "description": null}}, {"type": "Feature", "geometry": {"type": "Point", "coordinates": [9.399549, 55.514089]}, "properties": {"name": "Rasteplads Harte Nord E20", "link": "http://www.uppladdning.nu/SiteDetail.aspx?id=a6d43751-15bc-4e8d-9183-e0bb1de9b72c", "type": "Public", "description": null}}, {"type": "Feature", "geometry": {"type": "Point", "coordinates": [8.969965, 56.134797]}, "properties": {"name": "F\u00f8tex Herning", "link": "http://www.uppladdning.nu/SiteDetail.aspx?id=a26ab6a6-0acd-4d48-93e3-8c575ce17807", "type": "Public", "description": null}}, {"type": "Feature", "geometry": {"type": "Point", "coordinates": [9.406749, 56.451986]}, "properties": {"name": "F\u00f8tex Viborg", "link": "http://www.uppladdning.nu/SiteDetail.aspx?id=441daa14-deb9-43ed-bd07-e9ffccd26f1b", "type": "Public", "description": null}}, {"type": "Feature", "geometry": {"type": "Point", "coordinates": [10.88186, 56.413504]}, "properties": {"name": "Netto Grenaa", "link": "http://www.uppladdning.nu/SiteDetail.aspx?id=6b64f978-a250-4e60-912f-9e5474a4f4e7", "type": "Public", "description": null}}, {"type": "Feature", "geometry": {"type": "Point", "coordinates": [10.189463, 56.170404]}, "properties": {"name": "F\u00f8tex Aarhus", "link": "http://www.uppladdning.nu/SiteDetail.aspx?id=4f64df21-33ef-479f-97fe-1e016fa888d9", "type": "Public", "description": null}}, {"type": "Feature", "geometry": {"type": "Point", "coordinates": [11.916031, 55.007135]}, "properties": {"name": "Shell Vordingborg", "link": "http://www.uppladdning.nu/SiteDetail.aspx?id=904c31e0-3b0c-4431-9409-bad70b9ce98c", "type": "Public", "description": null}}, {"type": "Feature", "geometry": {"type": "Point", "coordinates": [11.785699, 55.252669]}, "properties": {"name": "Bilka N\u00e6stved", "link": "http://www.uppladdning.nu/SiteDetail.aspx?id=605f12f9-d378-4ed2-ba68-834e117c1f66", "type": "Public", "description": null}}, {"type": "Feature", "geometry": {"type": "Point", "coordinates": [8.854397, 54.939784]}, "properties": {"name": "Netto T\u00f8nder", "link": "http://www.uppladdning.nu/SiteDetail.aspx?id=f4bda0ea-5e62-4283-b82f-c8b9de2c661f", "type": "Public", "description": null}}, {"type": "Feature", "geometry": {"type": "Point", "coordinates": [9.372019, 55.215576]}, "properties": {"name": "Rasteplads Ustrup Vest E45", "link": "http://www.uppladdning.nu/SiteDetail.aspx?id=fcaa8a48-55cf-4b16-a6e5-aef32f08baad", "type": "Public", "description": null}}, {"type": "Feature", "geometry": {"type": "Point", "coordinates": [9.376627, 55.21639]}, "properties": {"name": "Rasteplads Ustrup \u00d8st E45", "link": "http://www.uppladdning.nu/SiteDetail.aspx?id=5f519a73-d682-425e-85db-c4904e86685f", "type": "Public", "description": null}}, {"type": "Feature", "geometry": {"type": "Point", "coordinates": [9.474407, 55.488379]}, "properties": {"name": "F\u00f8tex Kolding", "link": "http://www.uppladdning.nu/SiteDetail.aspx?id=e8f85092-6870-4e04-a382-7216f98b1a7c", "type": "Public", "description": null}}, {"type": "Feature", "geometry": {"type": "Point", "coordinates": [9.101898, 55.735423]}, "properties": {"name": "Shell Billund", "link": "http://www.uppladdning.nu/SiteDetail.aspx?id=d0b4f96f-d501-4a8d-9675-8570fac17839", "type": "Public", "description": null}}, {"type": "Feature", "geometry": {"type": "Point", "coordinates": [10.001965, 56.448977]}, "properties": {"name": "Rasteplads Guden\u00e5 \u00d8st E45", "link": "http://www.uppladdning.nu/SiteDetail.aspx?id=986d02c0-d856-4761-b23a-ed84a92ad88e", "type": "Public", "description": null}}, {"type": "Feature", "geometry": {"type": "Point", "coordinates": [9.999376, 56.449453]}, "properties": {"name": "Rasteplads Guden\u00e5 Vest E45", "link": "http://www.uppladdning.nu/SiteDetail.aspx?id=ec8baf80-314e-4998-8837-61999b83c514", "type": "Public", "description": null}}, {"type": "Feature", "geometry": {"type": "Point", "coordinates": [12.539328, 55.701888]}, "properties": {"name": "F\u00f8tex N\u00f8rrebro", "link": "http://www.uppladdning.nu/SiteDetail.aspx?id=e4a9747d-11a8-4531-91a1-56d4562402f8", "type": "Public", "description": null}}, {"type": "Feature", "geometry": {"type": "Point", "coordinates": [12.386632, 55.732877]}, "properties": {"name": "F\u00f8tex Ballerup", "link": "http://www.uppladdning.nu/SiteDetail.aspx?id=1140fff6-69fc-467f-99d8-d5f27ca1643d", "type": "Public", "description": null}}, {"type": "Feature", "geometry": {"type": "Point", "coordinates": [12.561994, 55.676435]}, "properties": {"name": "Hotel Mercur K\u00f8benhavn", "link": "http://www.uppladdning.nu/SiteDetail.aspx?id=7ed68970-1baf-4474-97bd-a80698b721f7", "type": "Public", "description": null}}, {"type": "Feature", "geometry": {"type": "Point", "coordinates": [11.855051, 54.758442]}, "properties": {"name": "F\u00f8tex Nyk\u00f8bing Falster", "link": "http://www.uppladdning.nu/SiteDetail.aspx?id=ec5e7f4d-df61-4e04-9a39-25ec2b6b36f9", "type": "Public", "description": null}}, {"type": "Feature", "geometry": {"type": "Point", "coordinates": [12.065239, 55.847853]}, "properties": {"name": "Netto Frederikssund", "link": "http://www.uppladdning.nu/SiteDetail.aspx?id=d8b2b3ac-1a78-4a89-be12-c604347bb9a0", "type": "Public", "description": null}}, {"type": "Feature", "geometry": {"type": "Point", "coordinates": [12.575918, 55.626752]}, "properties": {"name": "Crowne Plaza K\u00f8benhavn", "link": "http://www.uppladdning.nu/SiteDetail.aspx?id=60a391f3-e0ae-4c12-ad49-d4b452056d8e", "type": "Public", "description": null}}, {"type": "Feature", "geometry": {"type": "Point", "coordinates": [10.124635, 56.182417]}, "properties": {"name": "Bayern Autogroup Aarhus V", "link": "http://www.uppladdning.nu/SiteDetail.aspx?id=cdbb1d04-c2e2-4825-910e-415285ce33dc", "type": "Public", "description": null}}, {"type": "Feature", "geometry": {"type": "Point", "coordinates": [10.149486, 55.974971]}, "properties": {"name": "Netto Odder", "link": "http://www.uppladdning.nu/SiteDetail.aspx?id=97684965-c0e5-472e-9860-1f572a0d84f8", "type": "Public", "description": null}}, {"type": "Feature", "geometry": {"type": "Point", "coordinates": [9.870033, 55.977865]}, "properties": {"name": "Rasteplads Ejer Bavneh\u00f8j \u00d8st E45", "link": "http://www.uppladdning.nu/SiteDetail.aspx?id=ea68cc35-2e84-4c85-bd86-aa68bebfc796", "type": "Public", "description": null}}, {"type": "Feature", "geometry": {"type": "Point", "coordinates": [9.865962, 55.980116]}, "properties": {"name": "Rasteplads Ejerbavneh\u00f8j Vest E45", "link": "http://www.uppladdning.nu/SiteDetail.aspx?id=1e00ac3a-7ca1-4422-8a4b-f740c997ce74", "type": "Public", "description": null}}, {"type": "Feature", "geometry": {"type": "Point", "coordinates": [10.136093, 56.1535]}, "properties": {"name": "City Vest Brabrand", "link": "http://www.uppladdning.nu/SiteDetail.aspx?id=15ef18e1-9597-4eae-9fac-46aac4a5eca3", "type": "Public", "description": null}}, {"type": "Feature", "geometry": {"type": "Point", "coordinates": [8.839971, 56.799567]}, "properties": {"name": "Thy-mors Energi Nyk\u00f8bing Mors", "link": "http://www.uppladdning.nu/SiteDetail.aspx?id=9eb18e49-a0a2-4eed-b17d-4bb8c01061ce", "type": "Public", "description": null}}, {"type": "Feature", "geometry": {"type": "Point", "coordinates": [12.521271, 55.775037]}, "properties": {"name": "Circle K Lyngby", "link": "http://www.uppladdning.nu/SiteDetail.aspx?id=c2f8369a-aa1f-4b23-8c30-8367c3bd674e", "type": "Public", "description": null}}, {"type": "Feature", "geometry": {"type": "Point", "coordinates": [12.518712, 55.769799]}, "properties": {"name": "Firskovvej BMW Jan Nygaard", "link": "http://www.uppladdning.nu/SiteDetail.aspx?id=f7f337b9-a818-484e-9565-809cb969a423", "type": "Public", "description": null}}, {"type": "Feature", "geometry": {"type": "Point", "coordinates": [12.460606, 55.645501]}, "properties": {"name": "Circle K Hvidovre", "link": "http://www.uppladdning.nu/SiteDetail.aspx?id=c98c7a2a-ed18-4a8c-8d0a-1111a72edd7f", "type": "Public", "description": null}}, {"type": "Feature", "geometry": {"type": "Point", "coordinates": [9.402623, 56.445504]}, "properties": {"name": "Viborg sygehus [Clever]", "link": "http://www.uppladdning.nu/SiteDetail.aspx?id=15cae598-f25c-4b19-9bf6-16b8d470cfbf", "type": "Public", "description": null}}, {"type": "Feature", "geometry": {"type": "Point", "coordinates": [9.849368, 55.859048]}, "properties": {"name": "E.ON Ribersgade", "link": "http://www.uppladdning.nu/SiteDetail.aspx?id=89438a57-6537-4884-b0d2-45747b2ae12f", "type": "Public", "description": null}}, {"type": "Feature", "geometry": {"type": "Point", "coordinates": [12.54128, 55.653257]}, "properties": {"name": "Sydhavns Plads Circle K", "link": "http://www.uppladdning.nu/SiteDetail.aspx?id=b769d333-1205-401d-86ed-6f6f11cd64d0", "type": "Public", "description": null}}, {"type": "Feature", "geometry": {"type": "Point", "coordinates": [9.85411, 55.871276]}, "properties": {"name": "E.ON @ Forum Horsens", "link": "http://www.uppladdning.nu/SiteDetail.aspx?id=11cc4656-5859-4306-86a9-9502a23e96a5", "type": "Public", "description": null}}, {"type": "Feature", "geometry": {"type": "Point", "coordinates": [10.074977, 56.413008]}, "properties": {"name": "Gammel BetterPlace Randers", "link": "http://www.uppladdning.nu/SiteDetail.aspx?id=d91a4981-d120-4de4-a558-c43eb337b5dc", "type": "Public", "description": null}}, {"type": "Feature", "geometry": {"type": "Point", "coordinates": [12.162993, 55.489383]}, "properties": {"name": "E.On Servicevej K\u00f8ge", "link": "http://www.uppladdning.nu/SiteDetail.aspx?id=d58951ea-04dd-4b3e-afa7-f8f4c5ec1c69", "type": "Public", "description": null}}, {"type": "Feature", "geometry": {"type": "Point", "coordinates": [12.606115, 55.621699]}, "properties": {"name": "BMW Amager", "link": "http://www.uppladdning.nu/SiteDetail.aspx?id=c45ea9a7-8835-48f4-a149-fd2d1699c1b1", "type": "Public", "description": null}}, {"type": "Feature", "geometry": {"type": "Point", "coordinates": [9.36652, 55.065267]}, "properties": {"name": "Circle K", "link": "http://www.uppladdning.nu/SiteDetail.aspx?id=a1910530-3fe2-4f2f-99f8-646b01b4c299", "type": "Public", "description": null}}, {"type": "Feature", "geometry": {"type": "Point", "coordinates": [12.601136, 56.030158]}, "properties": {"name": "Circle K Helsing\u00f8r", "link": "http://www.uppladdning.nu/SiteDetail.aspx?id=9a75bf9c-88a5-4424-9a53-0e7221f42d8f", "type": "Public", "description": null}}, {"type": "Feature", "geometry": {"type": "Point", "coordinates": [12.474815, 55.906686]}, "properties": {"name": "F\u00f8tex Kokkedal", "link": "http://www.uppladdning.nu/SiteDetail.aspx?id=18891054-c796-42bf-8a27-9facbb12b3d4", "type": "Public", "description": null}}, {"type": "Feature", "geometry": {"type": "Point", "coordinates": [12.561494, 55.69216]}, "properties": {"name": "N\u00f8rre all\u00e9 6", "link": "http://www.uppladdning.nu/SiteDetail.aspx?id=4dd5fce4-cd75-476c-9785-36f55a387980", "type": "Public", "description": null}}, {"type": "Feature", "geometry": {"type": "Point", "coordinates": [14.710479, 55.085187]}, "properties": {"name": "Green Solution House", "link": "http://www.uppladdning.nu/SiteDetail.aspx?id=cfe1e42f-bb4f-4992-bbd2-0a1625b2da21", "type": "Public", "description": null}}, {"type": "Feature", "geometry": {"type": "Point", "coordinates": [12.380871, 55.651179]}, "properties": {"name": "Skandinavisk Motor Compagni DK", "link": "http://www.uppladdning.nu/SiteDetail.aspx?id=82b1e14c-b8d4-4825-beab-993578c62bc5", "type": "Public", "description": null}}, {"type": "Feature", "geometry": {"type": "Point", "coordinates": [12.067152, 55.636358]}, "properties": {"name": "Roskilde Kongrescenter", "link": "http://www.uppladdning.nu/SiteDetail.aspx?id=23b65e32-4ee7-445a-beb5-a827d76c6ab6", "type": "Public", "description": null}}, {"type": "Feature", "geometry": {"type": "Point", "coordinates": [12.579867, 55.669352]}, "properties": {"name": "Islands Brygge", "link": "http://www.uppladdning.nu/SiteDetail.aspx?id=39fe3cb1-b4b0-4f00-bc7b-cde4cb85bab5", "type": "Public", "description": null}}, {"type": "Feature", "geometry": {"type": "Point", "coordinates": [10.057468, 55.380134]}, "properties": {"name": "CiPe:Care Aarup ", "link": "http://www.uppladdning.nu/SiteDetail.aspx?id=6a1c6be6-6277-4378-a7bd-a5a5e71dd6b0", "type": "Public", "description": null}}, {"type": "Feature", "geometry": {"type": "Point", "coordinates": [11.361835, 55.387881]}, "properties": {"name": "Slagelse Tesla Supercharger", "link": "http://www.uppladdning.nu/SiteDetail.aspx?id=b11255e8-37f6-4967-adc6-c5aca9d8d7c5", "type": "Public", "description": null}}, {"type": "Feature", "geometry": {"type": "Point", "coordinates": [11.897099, 54.899711]}, "properties": {"name": "N\u00f8rre Alslev Supercharger", "link": "http://www.uppladdning.nu/SiteDetail.aspx?id=474304a1-35e4-4a03-b1ab-06deae1110a0", "type": "Public", "description": null}}, {"type": "Feature", "geometry": {"type": "Point", "coordinates": [9.416607, 55.035333]}, "properties": {"name": "Lidl Aabenraa", "link": "http://www.uppladdning.nu/SiteDetail.aspx?id=9cc8a53b-735c-4753-85c9-f19ce73d9c7b", "type": "Public", "description": null}}, {"type": "Feature", "geometry": {"type": "Point", "coordinates": [12.587204, 55.670146]}, "properties": {"name": "Christianshavn", "link": "http://www.uppladdning.nu/SiteDetail.aspx?id=a35f4c95-c418-4354-9dfd-aedc2eeae3b3", "type": "Public", "description": null}}, {"type": "Feature", "geometry": {"type": "Point", "coordinates": [12.583476, 55.67548]}, "properties": {"name": "Slotsholmsgade", "link": "http://www.uppladdning.nu/SiteDetail.aspx?id=bc7eb6f3-2cb4-4956-97cb-0e9353d38b1d", "type": "Public", "description": null}}, {"type": "Feature", "geometry": {"type": "Point", "coordinates": [12.583283, 55.675382]}, "properties": {"name": "Slotsholmsgade", "link": "http://www.uppladdning.nu/SiteDetail.aspx?id=47127c2e-370f-469b-980f-a25a24284514", "type": "Public", "description": null}}, {"type": "Feature", "geometry": {"type": "Point", "coordinates": [12.598239, 55.676667]}, "properties": {"name": "Bedenhoffs Pl", "link": "http://www.uppladdning.nu/SiteDetail.aspx?id=c004b38d-75ee-495c-b0fd-accef48036d9", "type": "Public", "description": null}}, {"type": "Feature", "geometry": {"type": "Point", "coordinates": [11.178391, 54.44308]}, "properties": {"name": "Fleggaard Burg", "link": "http://www.uppladdning.nu/SiteDetail.aspx?id=f5c22692-2d9b-4e3e-8348-e6cde51bf4bb", "type": "Public", "description": null}}, {"type": "Feature", "geometry": {"type": "Point", "coordinates": [8.61566, 56.354972]}, "properties": {"name": "Toftegade", "link": "http://www.uppladdning.nu/SiteDetail.aspx?id=fa41f481-a0b0-451a-827d-3b52041f9f19", "type": "Public", "description": null}}, {"type": "Feature", "geometry": {"type": "Point", "coordinates": [12.540049, 55.654475]}, "properties": {"name": "Gamle Vasbygade", "link": "http://www.uppladdning.nu/SiteDetail.aspx?id=cc448632-8702-42ec-86e5-b627897f2078", "type": "Public", "description": null}}, {"type": "Feature", "geometry": {"type": "Point", "coordinates": [11.333127, 54.665593]}, "properties": {"name": "Clever Lalandia R\u00f6dby", "link": "http://www.uppladdning.nu/SiteDetail.aspx?id=f923d60a-6b5e-4a8b-8aaf-13c411f406de", "type": "Public", "description": null}}, {"type": "Feature", "geometry": {"type": "Point", "coordinates": [9.994236, 55.209107]}, "properties": {"name": "Gl. Brydegaard", "link": "http://www.uppladdning.nu/SiteDetail.aspx?id=3e32f177-2033-4d9a-bacd-59684c407ebc", "type": "Public", "description": null}}, {"type": "Feature", "geometry": {"type": "Point", "coordinates": [8.996441, 56.135398]}, "properties": {"name": "Herning Centeret (Sydvestlig hj\u00f8rne af centeret)", "link": "http://www.uppladdning.nu/SiteDetail.aspx?id=54c2085f-ef42-47b6-ac3c-034c32b2869c", "type": "Public", "description": null}}, {"type": "Feature", "geometry": {"type": "Point", "coordinates": [12.54485, 55.88144]}, "properties": {"name": "Rungstedgard", "link": "http://www.uppladdning.nu/SiteDetail.aspx?id=5d534e8e-eb48-4c6e-b42e-1916bc4f795b", "type": "Public", "description": null}}, {"type": "Feature", "geometry": {"type": "Point", "coordinates": [10.634256, 57.739118]}, "properties": {"name": "Grenen Skagen ", "link": "http://www.uppladdning.nu/SiteDetail.aspx?id=20f8cd46-5fe0-4483-874b-238069757ba2", "type": "Public", "description": null}}, {"type": "Feature", "geometry": {"type": "Point", "coordinates": [12.179675, 55.454501]}, "properties": {"name": "Blegdammen", "link": "http://www.uppladdning.nu/SiteDetail.aspx?id=95a1350e-cdd8-4271-b980-def884157682", "type": "Public", "description": null}}, {"type": "Feature", "geometry": {"type": "Point", "coordinates": [12.574754, 55.702718]}, "properties": {"name": "E.ON Parken", "link": "http://www.uppladdning.nu/SiteDetail.aspx?id=3ba57900-8e30-4adc-9902-2cba399e3071", "type": "Public", "description": null}}, {"type": "Feature", "geometry": {"type": "Point", "coordinates": [9.764163, 56.147869]}, "properties": {"name": "Rasteplads ved Herningmotorvejen", "link": "http://www.uppladdning.nu/SiteDetail.aspx?id=2acecea2-68a2-4928-8671-7a1b675562ad", "type": "Public", "description": null}}, {"type": "Feature", "geometry": {"type": "Point", "coordinates": [9.000528, 56.038355]}, "properties": {"name": "S\u00f8by vest", "link": "http://www.uppladdning.nu/SiteDetail.aspx?id=fc65f109-30b7-481d-900b-b95b6af508c5", "type": "Public", "description": null}}, {"type": "Feature", "geometry": {"type": "Point", "coordinates": [9.004218, 56.039577]}, "properties": {"name": "S\u00f8by \u00f8st", "link": "http://www.uppladdning.nu/SiteDetail.aspx?id=f3784736-252f-4659-92db-0d9e374f3c1f", "type": "Public", "description": null}}, {"type": "Feature", "geometry": {"type": "Point", "coordinates": [9.765719, 56.149458]}, "properties": {"name": "Rasteplads ved Herningmotorvejen", "link": "http://www.uppladdning.nu/SiteDetail.aspx?id=dd7850f0-6e1b-4a4e-95dc-8083cc630eb5", "type": "Public", "description": null}}, {"type": "Feature", "geometry": {"type": "Point", "coordinates": [12.470598, 55.647737]}, "properties": {"name": "Hvidovre Hospital, parkeringsk\u00e6lder v. H s\u00f8jle", "link": "http://www.uppladdning.nu/SiteDetail.aspx?id=2872dbd6-3f34-4002-9703-c5cffaa086ae", "type": "Public", "description": null}}, {"type": "Feature", "geometry": {"type": "Point", "coordinates": [10.161645, 57.15206]}, "properties": {"name": "Frederikshavnmotorvejen, Hjallerup", "link": "http://www.uppladdning.nu/SiteDetail.aspx?id=faae2d6b-8d54-4e51-99bc-795b9757553b", "type": "Public", "description": null}}, {"type": "Feature", "geometry": {"type": "Point", "coordinates": [12.636788, 55.656657]}, "properties": {"name": "Amager", "link": "http://www.uppladdning.nu/SiteDetail.aspx?id=b400daf8-0738-4632-9ad7-5418df7c8636", "type": "Public", "description": null}}, {"type": "Feature", "geometry": {"type": "Point", "coordinates": [12.180585, 55.456632]}, "properties": {"name": "K\u00f8ge Torv II", "link": "http://www.uppladdning.nu/SiteDetail.aspx?id=38f47a78-0b1c-4922-b798-524e15cceafb", "type": "Public", "description": null}}, {"type": "Feature", "geometry": {"type": "Point", "coordinates": [10.157764, 57.154172]}, "properties": {"name": "Hjallerup Enge Vest", "link": "http://www.uppladdning.nu/SiteDetail.aspx?id=94fab8d4-9dd8-4ea3-a98b-93237c25cf7f", "type": "Public", "description": null}}, {"type": "Feature", "geometry": {"type": "Point", "coordinates": [12.529759, 55.679877]}, "properties": {"name": "Frederiksberg Brandstation", "link": "http://www.uppladdning.nu/SiteDetail.aspx?id=eaf49b9a-6690-40b2-aa89-d1347ecb1916", "type": "Public", "description": null}}, {"type": "Feature", "geometry": {"type": "Point", "coordinates": [12.228816, 55.352867]}, "properties": {"name": "Sundheds- og Frivillighedscenter H\u00e5rlev", "link": "http://www.uppladdning.nu/SiteDetail.aspx?id=50811417-c47f-442b-a799-ab46455918f1", "type": "Public", "description": null}}, {"type": "Feature", "geometry": {"type": "Point", "coordinates": [12.52594, 55.68711]}, "properties": {"name": "Frederiksberg Hospital", "link": "http://www.uppladdning.nu/SiteDetail.aspx?id=1ecfdc0d-3ebe-4347-b23c-e587f2917135", "type": "Public", "description": null}}, {"type": "Feature", "geometry": {"type": "Point", "coordinates": [12.198698, 56.02298]}, "properties": {"name": "Gadek\u00e6rvej - Helsinge", "link": "http://www.uppladdning.nu/SiteDetail.aspx?id=1ad208be-4470-4599-9c32-427c74e37ac9", "type": "Public", "description": null}}, {"type": "Feature", "geometry": {"type": "Point", "coordinates": [9.575802, 56.200794]}, "properties": {"name": "Eniig - Silkeborg", "link": "http://www.uppladdning.nu/SiteDetail.aspx?id=b9c80bc4-b790-4adb-b420-ba6b521e9bd7", "type": "Public", "description": null}}, {"type": "Feature", "geometry": {"type": "Point", "coordinates": [12.425765, 55.841]}, "properties": {"name": "Hovedbiblioteket i Birker\u00f8d", "link": "http://www.uppladdning.nu/SiteDetail.aspx?id=447cc5d4-fa05-4d6c-8e03-f3bf16d76263", "type": "Public", "description": null}}, {"type": "Feature", "geometry": {"type": "Point", "coordinates": [12.60212, 55.66507]}, "properties": {"name": "Prags Boulevard - K\u00f8benhavn", "link": "http://www.uppladdning.nu/SiteDetail.aspx?id=e14d268e-7931-4cee-89d5-743c064434fe", "type": "Public", "description": null}}, {"type": "Feature", "geometry": {"type": "Point", "coordinates": [12.503442, 55.903015]}, "properties": {"name": "Kokkedal St.", "link": "http://www.uppladdning.nu/SiteDetail.aspx?id=62189957-5c19-4d0a-9ac1-e9843430503b", "type": "Public", "description": null}}, {"type": "Feature", "geometry": {"type": "Point", "coordinates": [9.89127, 55.267338]}, "properties": {"name": "Superbrugsen Assens", "link": "http://www.uppladdning.nu/SiteDetail.aspx?id=51fd873f-89d7-4842-bfff-21d0135599fa", "type": "Public", "description": null}}, {"type": "Feature", "geometry": {"type": "Point", "coordinates": [12.579154, 55.667484]}, "properties": {"name": "Thorshavnsgade - K\u00f8benhavn", "link": "http://www.uppladdning.nu/SiteDetail.aspx?id=68a914f3-96ae-4fe4-89b9-3ab1d04d049f", "type": "Public", "description": null}}, {"type": "Feature", "geometry": {"type": "Point", "coordinates": [8.884778, 57.048832]}, "properties": {"name": "Testcenter for store vindm\u00f8ller - \u00d8sterild", "link": "http://www.uppladdning.nu/SiteDetail.aspx?id=e6f12594-119b-48cd-a07f-fa7f0d1b6bf4", "type": "Public", "description": null}}, {"type": "Feature", "geometry": {"type": "Point", "coordinates": [9.986343, 57.576378]}, "properties": {"name": "Hirtshals Transportcenter", "link": "http://www.uppladdning.nu/SiteDetail.aspx?id=87a7b62c-43f5-450a-be94-43b5607d04f0", "type": "Public", "description": null}}, {"type": "Feature", "geometry": {"type": "Point", "coordinates": [10.201383, 56.155987]}, "properties": {"name": "M\u00f8llegade - Aarhus", "link": "http://www.uppladdning.nu/SiteDetail.aspx?id=93b8b763-c900-4776-a02a-b4844e37db5d", "type": "Public", "description": null}}, {"type": "Feature", "geometry": {"type": "Point", "coordinates": [10.21611, 56.170242]}, "properties": {"name": "Tordenskjoldsgade - Aarhus", "link": "http://www.uppladdning.nu/SiteDetail.aspx?id=60785944-fe26-4dbd-b7e8-8d8a97f1b830", "type": "Public", "description": null}}, {"type": "Feature", "geometry": {"type": "Point", "coordinates": [12.55048, 55.69426]}, "properties": {"name": "Fyensgade - K\u00f8benhavn", "link": "http://www.uppladdning.nu/SiteDetail.aspx?id=9eaf1e93-346c-436a-a132-857c3393db34", "type": "Public", "description": null}}, {"type": "Feature", "geometry": {"type": "Point", "coordinates": [10.784342, 55.13924]}, "properties": {"name": "GO2Green Hesselager", "link": "http://www.uppladdning.nu/SiteDetail.aspx?id=fa9bf868-ab0f-4427-93a9-97cc440d4df9", "type": "Public", "description": null}}, {"type": "Feature", "geometry": {"type": "Point", "coordinates": [11.789676, 55.449963]}, "properties": {"name": "Ringsted Sygehus", "link": "http://www.uppladdning.nu/SiteDetail.aspx?id=a14398a1-095d-476b-870e-74f23706a024", "type": "Public", "description": null}}, {"type": "Feature", "geometry": {"type": "Point", "coordinates": [12.570877, 55.674423]}, "properties": {"name": "H.C. Andersens Boulevard - K\u00f8benhavn", "link": "http://www.uppladdning.nu/SiteDetail.aspx?id=bed96dba-2478-4b3c-8889-b045179260cd", "type": "Public", "description": null}}, {"type": "Feature", "geometry": {"type": "Point", "coordinates": [11.76063, 55.235695]}, "properties": {"name": "N\u00e6stved Sygehus", "link": "http://www.uppladdning.nu/SiteDetail.aspx?id=20d86d6c-bb84-4733-9092-73d26b0a4c8e", "type": "Public", "description": null}}, {"type": "Feature", "geometry": {"type": "Point", "coordinates": [10.216577, 56.158627]}, "properties": {"name": "NAVITAS p-huset", "link": "http://www.uppladdning.nu/SiteDetail.aspx?id=f863d410-587d-43a2-abd0-b2cdd9c6f863", "type": "Public", "description": null}}, {"type": "Feature", "geometry": {"type": "Point", "coordinates": [12.311272, 55.923954]}, "properties": {"name": "P-plads Teglg\u00e5rdss\u00f8en - Hiller\u00f8d", "link": "http://www.uppladdning.nu/SiteDetail.aspx?id=4344473a-dbce-4b8b-885a-e557ad2dca73", "type": "Public", "description": null}}, {"type": "Feature", "geometry": {"type": "Point", "coordinates": [12.56727, 55.694687]}, "properties": {"name": "Rigshospitalet", "link": "http://www.uppladdning.nu/SiteDetail.aspx?id=1a011d66-8362-431f-94bc-5f720e0255d5", "type": "Public", "description": null}}, {"type": "Feature", "geometry": {"type": "Point", "coordinates": [10.187204, 56.18687]}, "properties": {"name": "Regionshuset Aarhus", "link": "http://www.uppladdning.nu/SiteDetail.aspx?id=bf483030-32e2-4eba-9e0f-d6a0ad4dbfe7", "type": "Public", "description": null}}, {"type": "Feature", "geometry": {"type": "Point", "coordinates": [10.213193, 56.16186]}, "properties": {"name": "Kal\u00f8gade - Aarhus", "link": "http://www.uppladdning.nu/SiteDetail.aspx?id=3da2ad3a-df0c-4bb6-b93f-ce3569c5e546", "type": "Public", "description": null}}, {"type": "Feature", "geometry": {"type": "Point", "coordinates": [11.861966, 55.591663]}, "properties": {"name": "Hvals\u00f8 Brugsforening", "link": "http://www.uppladdning.nu/SiteDetail.aspx?id=d1449aa0-1f24-46bc-aeae-9a759ee7e511", "type": "Public", "description": null}}, {"type": "Feature", "geometry": {"type": "Point", "coordinates": [12.517789, 55.769695]}, "properties": {"name": "FDM - Lyngby", "link": "http://www.uppladdning.nu/SiteDetail.aspx?id=44e85164-e9a2-418b-813d-8ae512d32003", "type": "Public", "description": null}}, {"type": "Feature", "geometry": {"type": "Point", "coordinates": [9.961389, 57.590557]}, "properties": {"name": "Det Gamle R\u00e5dhus - Hirtshals", "link": "http://www.uppladdning.nu/SiteDetail.aspx?id=d940985f-c6ec-42ce-b2f3-3c9a31106893", "type": "Public", "description": null}}, {"type": "Feature", "geometry": {"type": "Point", "coordinates": [12.239844, 55.75016]}, "properties": {"name": "Veks\u00f8 St.", "link": "http://www.uppladdning.nu/SiteDetail.aspx?id=94d411bd-fc55-47f6-b9d7-f93b742d6f76", "type": "Public", "description": null}}, {"type": "Feature", "geometry": {"type": "Point", "coordinates": [9.59002, 57.250896]}, "properties": {"name": "\u00c5lborgvej - Blokhus", "link": "http://www.uppladdning.nu/SiteDetail.aspx?id=b25e8f4f-5a90-4618-a028-0e237724ff99", "type": "Public", "description": null}}, {"type": "Feature", "geometry": {"type": "Point", "coordinates": [11.91052, 55.00937]}, "properties": {"name": "Karolineparkeringen - Vordingborg", "link": "http://www.uppladdning.nu/SiteDetail.aspx?id=9a89e6da-5943-4cb2-a764-5198aadfb59a", "type": "Public", "description": null}}, {"type": "Feature", "geometry": {"type": "Point", "coordinates": [9.54328, 56.165253]}, "properties": {"name": "Estrups G\u00e5rd parkeringen", "link": "http://www.uppladdning.nu/SiteDetail.aspx?id=874d5d9e-7d98-4c2e-a252-3b20ce4f0d0f", "type": "Public", "description": null}}, {"type": "Feature", "geometry": {"type": "Point", "coordinates": [12.120191, 55.250957]}, "properties": {"name": "Faxe R\u00e5dhus", "link": "http://www.uppladdning.nu/SiteDetail.aspx?id=786081d1-810f-491b-bc25-0779a63bd8f6", "type": "Public", "description": null}}, {"type": "Feature", "geometry": {"type": "Point", "coordinates": [12.592608, 55.672665]}, "properties": {"name": "Mikkel Vibes Gade - K\u00f8benhavn", "link": "http://www.uppladdning.nu/SiteDetail.aspx?id=4d62faf1-e961-4bba-bf27-ec90b7ceddc5", "type": "Public", "description": null}}, {"type": "Feature", "geometry": {"type": "Point", "coordinates": [12.502068, 55.68259]}, "properties": {"name": "Flintholm alle - Frederiksberg", "link": "http://www.uppladdning.nu/SiteDetail.aspx?id=99593ae0-af0a-4b6b-b706-871ca6041b6b", "type": "Public", "description": null}}, {"type": "Feature", "geometry": {"type": "Point", "coordinates": [10.06325, 56.429947]}, "properties": {"name": "Randers Storcenter", "link": "http://www.uppladdning.nu/SiteDetail.aspx?id=35ab99d5-87b5-4dcc-a169-c0e08b95208c", "type": "Public", "description": null}}, {"type": "Feature", "geometry": {"type": "Point", "coordinates": [9.990505, 57.4601]}, "properties": {"name": "Vendelbopladsen - Hj\u00f8rring", "link": "http://www.uppladdning.nu/SiteDetail.aspx?id=3aad6215-2e3a-4982-a2e8-d7de5605a308", "type": "Public", "description": null}}, {"type": "Feature", "geometry": {"type": "Point", "coordinates": [10.24288, 55.09403]}, "properties": {"name": "Chr. D. IXs Vej - Faaborg", "link": "http://www.uppladdning.nu/SiteDetail.aspx?id=cba4c45d-5cd4-45ae-bb9d-04dfdab61a75", "type": "Public", "description": null}}, {"type": "Feature", "geometry": {"type": "Point", "coordinates": [12.34349, 55.73037]}, "properties": {"name": "Region Hovedstadens Akutberedskab", "link": "http://www.uppladdning.nu/SiteDetail.aspx?id=ecc00dba-fcdc-4ba6-8790-04c9977cc229", "type": "Public", "description": null}}, {"type": "Feature", "geometry": {"type": "Point", "coordinates": [12.349766, 55.93116]}, "properties": {"name": "Regionsg\u00e5rden - Hiller\u00f8d", "link": "http://www.uppladdning.nu/SiteDetail.aspx?id=6dcf2c5a-43ad-4b1c-95d6-e4716badac6e", "type": "Public", "description": null}}, {"type": "Feature", "geometry": {"type": "Point", "coordinates": [12.507565, 55.77247]}, "properties": {"name": "Lyngby Storcenter", "link": "http://www.uppladdning.nu/SiteDetail.aspx?id=59989ee9-2aa3-4e19-b942-47c0ce001875", "type": "Public", "description": null}}, {"type": "Feature", "geometry": {"type": "Point", "coordinates": [12.578695, 55.67231]}, "properties": {"name": "BLOX", "link": "http://www.uppladdning.nu/SiteDetail.aspx?id=a7315fc6-9e9c-4080-9513-048575b3a334", "type": "Public", "description": null}}, {"type": "Feature", "geometry": {"type": "Point", "coordinates": [12.620347, 55.654636]}, "properties": {"name": "Amager hospital", "link": "http://www.uppladdning.nu/SiteDetail.aspx?id=c6e81029-5c59-4f4a-9d99-68c492936e9a", "type": "Public", "description": null}}, {"type": "Feature", "geometry": {"type": "Point", "coordinates": [12.564485, 55.69695]}, "properties": {"name": "Rigshospitalet - Patienthotel", "link": "http://www.uppladdning.nu/SiteDetail.aspx?id=1b453665-7e57-462d-a851-82c34dbb0d4a", "type": "Public", "description": null}}, {"type": "Feature", "geometry": {"type": "Point", "coordinates": [9.58133, 55.734043]}, "properties": {"name": "Green Tech Center", "link": "http://www.uppladdning.nu/SiteDetail.aspx?id=ca69171a-0fec-4690-a43d-dfea9fb5c70a", "type": "Public", "description": null}}, {"type": "Feature", "geometry": {"type": "Point", "coordinates": [12.306143, 56.126904]}, "properties": {"name": "Gilleleje", "link": "http://www.uppladdning.nu/SiteDetail.aspx?id=865dbffc-5c66-4164-9e83-7bc7ba437de5", "type": "Public", "description": null}}, {"type": "Feature", "geometry": {"type": "Point", "coordinates": [11.850141, 55.963238]}, "properties": {"name": "Strandvejen - Hundested", "link": "http://www.uppladdning.nu/SiteDetail.aspx?id=ec816666-c26d-405c-985e-beab2c48ccf5", "type": "Public", "description": null}}, {"type": "Feature", "geometry": {"type": "Point", "coordinates": [12.561602, 55.671413]}, "properties": {"name": "Helgolandsgade - K\u00f8benhavn", "link": "http://www.uppladdning.nu/SiteDetail.aspx?id=490f64ff-08aa-4d33-ba99-41227b634516", "type": "Public", "description": null}}, {"type": "Feature", "geometry": {"type": "Point", "coordinates": [10.2137, 56.15404]}, "properties": {"name": "Dokk1 - Aarhus", "link": "http://www.uppladdning.nu/SiteDetail.aspx?id=367dec8a-a23e-415f-98ec-75537cbe5527", "type": "Public", "description": null}}, {"type": "Feature", "geometry": {"type": "Point", "coordinates": [12.555466, 55.674072]}, "properties": {"name": "Vodroffsvej Frederiksberg (Kbh K)", "link": "http://www.uppladdning.nu/SiteDetail.aspx?id=9abeb9bd-52cf-4205-8828-ad0d328f1574", "type": "Public", "description": null}}, {"type": "Feature", "geometry": {"type": "Point", "coordinates": [10.579951, 55.06729]}, "properties": {"name": "Sydfyns elforsyning A/S", "link": "http://www.uppladdning.nu/SiteDetail.aspx?id=f835c74f-461d-46ce-95b5-4c2ed1b33cbf", "type": "Public", "description": null}}, {"type": "Feature", "geometry": {"type": "Point", "coordinates": [12.532219, 55.96463]}, "properties": {"name": "Humleb\u00e6k Center", "link": "http://www.uppladdning.nu/SiteDetail.aspx?id=10f68729-1767-4bce-ba5d-63042adf9ce8", "type": "Public", "description": null}}, {"type": "Feature", "geometry": {"type": "Point", "coordinates": [12.557008, 55.698082]}, "properties": {"name": "Rigshospitalet - Tagensvej", "link": "http://www.uppladdning.nu/SiteDetail.aspx?id=5f7d433b-e274-437c-8127-f0ffca37fc6c", "type": "Public", "description": null}}, {"type": "Feature", "geometry": {"type": "Point", "coordinates": [12.324096, 55.93168]}, "properties": {"name": "Hiller\u00f8d Hospital", "link": "http://www.uppladdning.nu/SiteDetail.aspx?id=32cd54f4-42ac-485e-9bb3-82b3b9ccfe41", "type": "Public", "description": null}}, {"type": "Feature", "geometry": {"type": "Point", "coordinates": [12.451573, 55.76168]}, "properties": {"name": "Bagsv\u00e6rd torv", "link": "http://www.uppladdning.nu/SiteDetail.aspx?id=a663eb6e-2b8d-4940-be2d-b0797ad49797", "type": "Public", "description": null}}, {"type": "Feature", "geometry": {"type": "Point", "coordinates": [9.767765, 55.509766]}, "properties": {"name": "McDonalds - Middelfart", "link": "http://www.uppladdning.nu/SiteDetail.aspx?id=f0870a67-5f3d-4944-ba35-a5c09be02945", "type": "Public", "description": null}}, {"type": "Feature", "geometry": {"type": "Point", "coordinates": [12.577865, 55.70587]}, "properties": {"name": "\u00c5rhusgade - K\u00f8benhavn", "link": "http://www.uppladdning.nu/SiteDetail.aspx?id=2e2b3187-5774-487f-88c9-14b5dbb2ab80", "type": "Public", "description": null}}, {"type": "Feature", "geometry": {"type": "Point", "coordinates": [12.085706, 55.849033]}, "properties": {"name": "Frederikssund Hospital", "link": "http://www.uppladdning.nu/SiteDetail.aspx?id=700ee3d1-3589-43ce-9ccf-82b8668f3f6c", "type": "Public", "description": null}}, {"type": "Feature", "geometry": {"type": "Point", "coordinates": [12.07796, 56.059116]}, "properties": {"name": "Tisvildeleje Station", "link": "http://www.uppladdning.nu/SiteDetail.aspx?id=a3fbfcfe-a89a-46b9-a273-c9133fb92573", "type": "Public", "description": null}}, {"type": "Feature", "geometry": {"type": "Point", "coordinates": [12.578213, 55.63037]}, "properties": {"name": "Fields Shoppingcenter", "link": "http://www.uppladdning.nu/SiteDetail.aspx?id=f37be4e5-9f9e-488c-9afd-c9c8d7381829", "type": "Public", "description": null}}, {"type": "Feature", "geometry": {"type": "Point", "coordinates": [10.206207, 56.14978]}, "properties": {"name": "Bruuns Galleri - Aarhus", "link": "http://www.uppladdning.nu/SiteDetail.aspx?id=54380fb8-638b-4203-9824-a160af94a0d5", "type": "Public", "description": null}}, {"type": "Feature", "geometry": {"type": "Point", "coordinates": [10.200556, 57.47139]}, "properties": {"name": "Sindal Bibliotek", "link": "http://www.uppladdning.nu/SiteDetail.aspx?id=68a4c375-5f33-4d5b-9a29-f83e2804cbe9", "type": "Public", "description": null}}, {"type": "Feature", "geometry": {"type": "Point", "coordinates": [10.197864, 56.154427]}, "properties": {"name": "ARoS Aarhus Kunstmuseum", "link": "http://www.uppladdning.nu/SiteDetail.aspx?id=5d27a94b-418a-4498-b3d9-8fa4f986cae4", "type": "Public", "description": null}}, {"type": "Feature", "geometry": {"type": "Point", "coordinates": [9.402946, 56.453632]}, "properties": {"name": "Regionshuset Viborg", "link": "http://www.uppladdning.nu/SiteDetail.aspx?id=1af99581-52a3-4721-8843-fb8b9c4de591", "type": "Public", "description": null}}, {"type": "Feature", "geometry": {"type": "Point", "coordinates": [12.561904, 55.70669]}, "properties": {"name": "Vibenshus Runddel - K\u00f8benhavn", "link": "http://www.uppladdning.nu/SiteDetail.aspx?id=3d916dff-c0cf-4ce4-a4f4-a9a99faaa382", "type": "Public", "description": null}}, {"type": "Feature", "geometry": {"type": "Point", "coordinates": [12.544529, 55.68767]}, "properties": {"name": "Laurids Skaus Gade - K\u00f8benhavn", "link": "http://www.uppladdning.nu/SiteDetail.aspx?id=50446bcb-9c2a-4d19-ad31-74f1a1c4b69e", "type": "Public", "description": null}}, {"type": "Feature", "geometry": {"type": "Point", "coordinates": [10.153683, 56.201702]}, "properties": {"name": "Koldk\u00e6rg\u00e5rd Hotel & Konferencecenter", "link": "http://www.uppladdning.nu/SiteDetail.aspx?id=6b420263-8b76-4735-b071-924aa743cc68", "type": "Public", "description": null}}, {"type": "Feature", "geometry": {"type": "Point", "coordinates": [10.424628, 55.38553]}, "properties": {"name": "Roseng\u00e5rdcenteret - Bl\u00e5 gade P-k\u00e6lder", "link": "http://www.uppladdning.nu/SiteDetail.aspx?id=fc884b29-1ac1-4f72-ac91-86d44647314e", "type": "Public", "description": null}}, {"type": "Feature", "geometry": {"type": "Point", "coordinates": [9.027176, 56.561268]}, "properties": {"name": "Skive Station", "link": "http://www.uppladdning.nu/SiteDetail.aspx?id=4f6431ed-1b89-4401-8aad-2454e17166bb", "type": "Public", "description": null}}, {"type": "Feature", "geometry": {"type": "Point", "coordinates": [10.615477, 55.04035]}, "properties": {"name": "GO2Green T\u00e5singe", "link": "http://www.uppladdning.nu/SiteDetail.aspx?id=eee01cac-c01d-4a68-a63d-c68e2cdbb080", "type": "Public", "description": null}}, {"type": "Feature", "geometry": {"type": "Point", "coordinates": [11.962308, 55.325405]}, "properties": {"name": "Haslev R\u00e5dhus", "link": "http://www.uppladdning.nu/SiteDetail.aspx?id=75c87e34-077f-43c0-ae45-d520c93374c7", "type": "Public", "description": null}}, {"type": "Feature", "geometry": {"type": "Point", "coordinates": [12.548423, 55.73742]}, "properties": {"name": "Gentofte Hospital", "link": "http://www.uppladdning.nu/SiteDetail.aspx?id=49d73bd5-c415-40a8-b9a1-2f920549bedc", "type": "Public", "description": null}}, {"type": "Feature", "geometry": {"type": "Point", "coordinates": [12.388241, 55.309906]}, "properties": {"name": "Store Heddinge Torv", "link": "http://www.uppladdning.nu/SiteDetail.aspx?id=eb9f6194-18fa-405a-8ee1-6f4d29f174a6", "type": "Public", "description": null}}, {"type": "Feature", "geometry": {"type": "Point", "coordinates": [12.575867, 55.6898]}, "properties": {"name": "Stockholmsgade - K\u00f8benhavn", "link": "http://www.uppladdning.nu/SiteDetail.aspx?id=bfa0b3be-4f18-42ad-b6ce-7dfffc0154d0", "type": "Public", "description": null}}, {"type": "Feature", "geometry": {"type": "Point", "coordinates": [12.198994, 55.65005]}, "properties": {"name": "Br\u00f8ndvej - Hedehusene", "link": "http://www.uppladdning.nu/SiteDetail.aspx?id=dfbd01ab-9db3-4b30-8427-4296e3f3ffa0", "type": "Public", "description": null}}, {"type": "Feature", "geometry": {"type": "Point", "coordinates": [10.18998, 57.586826]}, "properties": {"name": "Klitg\u00e5rden i Tversted", "link": "http://www.uppladdning.nu/SiteDetail.aspx?id=1e5369b3-7d50-4299-80b3-7e00e0f2cd8e", "type": "Public", "description": null}}, {"type": "Feature", "geometry": {"type": "Point", "coordinates": [12.439682, 55.728455]}, "properties": {"name": "Herlev Hospital", "link": "http://www.uppladdning.nu/SiteDetail.aspx?id=9ed8daa9-6fe6-4cf0-bec3-0439baf9d146", "type": "Public", "description": null}}, {"type": "Feature", "geometry": {"type": "Point", "coordinates": [12.593082, 55.680996]}, "properties": {"name": "Sankt Ann\u00e6 Plads / Kv\u00e6sthusbroen", "link": "http://www.uppladdning.nu/SiteDetail.aspx?id=cbcff844-6e6b-48b9-9880-bc2a0c2f2987", "type": "Public", "description": null}}, {"type": "Feature", "geometry": {"type": "Point", "coordinates": [12.579396, 55.681816]}, "properties": {"name": "M\u00f8ntergade - K\u00f8benhavn", "link": "http://www.uppladdning.nu/SiteDetail.aspx?id=99da8a16-c2a2-4153-ac68-ba3f4782caf4", "type": "Public", "description": null}}, {"type": "Feature", "geometry": {"type": "Point", "coordinates": [12.59475, 55.687923]}, "properties": {"name": "Esplanaden - K\u00f8benhavn", "link": "http://www.uppladdning.nu/SiteDetail.aspx?id=a903b4c6-091a-46d4-95c3-ccb93db20dc1", "type": "Public", "description": null}}, {"type": "Feature", "geometry": {"type": "Point", "coordinates": [9.941666, 57.353058]}, "properties": {"name": "Superbrugsen i Vr\u00e5", "link": "http://www.uppladdning.nu/SiteDetail.aspx?id=e6da8034-8e11-4054-a635-36f924384052", "type": "Public", "description": null}}, {"type": "Feature", "geometry": {"type": "Point", "coordinates": [12.540379, 55.711323]}, "properties": {"name": "Bispebjerg Hospital", "link": "http://www.uppladdning.nu/SiteDetail.aspx?id=c2bcf908-c04d-446b-81e8-a0b9fdf63f1e", "type": "Public", "description": null}}, {"type": "Feature", "geometry": {"type": "Point", "coordinates": [9.983596, 57.57318]}, "properties": {"name": "DX Auto", "link": "http://www.uppladdning.nu/SiteDetail.aspx?id=fefdeecf-b14a-4119-9d21-be0a6bd39b0a", "type": "Public", "description": null}}, {"type": "Feature", "geometry": {"type": "Point", "coordinates": [12.527198, 55.814022]}, "properties": {"name": "N\u00e6rum Station", "link": "http://www.uppladdning.nu/SiteDetail.aspx?id=0f33143b-47dd-41b5-9232-d44777fbee2a", "type": "Public", "description": null}}, {"type": "Feature", "geometry": {"type": "Point", "coordinates": [12.572285, 55.82355]}, "properties": {"name": "Skodsborg St.", "link": "http://www.uppladdning.nu/SiteDetail.aspx?id=ba9dba82-e505-4331-b70e-36884e01af1e", "type": "Public", "description": null}}, {"type": "Feature", "geometry": {"type": "Point", "coordinates": [12.583638, 55.69272]}, "properties": {"name": "Visbygade - K\u00f8benhavn", "link": "http://www.uppladdning.nu/SiteDetail.aspx?id=29b8097b-69f8-4327-926a-7d944a13eb7d", "type": "Public", "description": null}}, {"type": "Feature", "geometry": {"type": "Point", "coordinates": [10.089756, 55.564144]}, "properties": {"name": "Holtelpassagen Bogense", "link": "http://www.uppladdning.nu/SiteDetail.aspx?id=2faf3bfd-c88b-4b89-95c1-d5fe23cbaf3f", "type": "Public", "description": null}}, {"type": "Feature", "geometry": {"type": "Point", "coordinates": [10.676338, 56.19948]}, "properties": {"name": "Fregatten Jylland", "link": "http://www.uppladdning.nu/SiteDetail.aspx?id=6933548a-3dd5-4ce7-b99e-0c5fdbaef4c8", "type": "Public", "description": null}}, {"type": "Feature", "geometry": {"type": "Point", "coordinates": [10.364587, 55.38327]}, "properties": {"name": "Odense Universitetshospital P-hus", "link": "http://www.uppladdning.nu/SiteDetail.aspx?id=21cf64ae-76e7-4db2-9c13-5356d5698bf8", "type": "Public", "description": null}}, {"type": "Feature", "geometry": {"type": "Point", "coordinates": [9.871999, 55.861877]}, "properties": {"name": "OPP P-Hus - Horsens Sygehus", "link": "http://www.uppladdning.nu/SiteDetail.aspx?id=bd409ad2-5495-44fd-a85a-d7392b0e4e2b", "type": "Public", "description": null}}, {"type": "Feature", "geometry": {"type": "Point", "coordinates": [12.575296, 55.71599]}, "properties": {"name": "Edvard Griegs gade - K\u00f8benhavn", "link": "http://www.uppladdning.nu/SiteDetail.aspx?id=e8926ae8-bacc-40fc-8dbb-e2c037bc43f2", "type": "Public", "description": null}}, {"type": "Feature", "geometry": {"type": "Point", "coordinates": [10.4134, 55.37016]}, "properties": {"name": "Forskerparken - Odense", "link": "http://www.uppladdning.nu/SiteDetail.aspx?id=88ee7e2f-bc75-4bff-95bc-d6ec70442d63", "type": "Public", "description": null}}, {"type": "Feature", "geometry": {"type": "Point", "coordinates": [12.587187, 55.678802]}, "properties": {"name": "Tordenskjoldsgade - K\u00f8benhavn", "link": "http://www.uppladdning.nu/SiteDetail.aspx?id=acecf896-a79e-4420-b06c-c24d0bbadba4", "type": "Public", "description": null}}, {"type": "Feature", "geometry": {"type": "Point", "coordinates": [12.561712, 55.85278]}, "properties": {"name": "Vedb\u00e6k St.", "link": "http://www.uppladdning.nu/SiteDetail.aspx?id=ee3cd08c-89f2-4a26-83f4-d363fdc02b28", "type": "Public", "description": null}}, {"type": "Feature", "geometry": {"type": "Point", "coordinates": [10.205663, 56.163784]}, "properties": {"name": "Vennelyst Plads Aarhus", "link": "http://www.uppladdning.nu/SiteDetail.aspx?id=d7c522f2-b325-4d76-a46c-e8c7f5201561", "type": "Public", "description": null}}, {"type": "Feature", "geometry": {"type": "Point", "coordinates": [12.580833, 55.698994]}, "properties": {"name": "Sor\u00f8gade - K\u00f8benhavn", "link": "http://www.uppladdning.nu/SiteDetail.aspx?id=8c3cf0ad-98ee-4f25-8a9a-4782e04f1bbd", "type": "Public", "description": null}}, {"type": "Feature", "geometry": {"type": "Point", "coordinates": [12.544981, 55.740852]}, "properties": {"name": "Gentofte Hospital", "link": "http://www.uppladdning.nu/SiteDetail.aspx?id=a339c689-8387-428c-b096-d76c12bd84cf", "type": "Public", "description": null}}, {"type": "Feature", "geometry": {"type": "Point", "coordinates": [11.911674, 55.00098]}, "properties": {"name": "Psykiatrien - Vordingborg", "link": "http://www.uppladdning.nu/SiteDetail.aspx?id=a9868d9e-0d71-4fd6-841e-c54302d2d433", "type": "Public", "description": null}}, {"type": "Feature", "geometry": {"type": "Point", "coordinates": [12.169408, 55.47773]}, "properties": {"name": "K\u00f8ge Sygehus", "link": "http://www.uppladdning.nu/SiteDetail.aspx?id=b2168483-80c8-4e80-bf9a-5ff02e632e6b", "type": "Public", "description": null}}, {"type": "Feature", "geometry": {"type": "Point", "coordinates": [8.818888, 56.760296]}, "properties": {"name": "Jesperhus Blomsterpark", "link": "http://www.uppladdning.nu/SiteDetail.aspx?id=bcf368ce-ec15-4336-a41e-f5abb9975a05", "type": "Public", "description": null}}, {"type": "Feature", "geometry": {"type": "Point", "coordinates": [9.933261, 56.034477]}, "properties": {"name": "Kulturhuset Skanderborg", "link": "http://www.uppladdning.nu/SiteDetail.aspx?id=6f0fc134-8571-4aa2-bbea-d4fcaed10062", "type": "Public", "description": null}}, {"type": "Feature", "geometry": {"type": "Point", "coordinates": [10.426956, 55.381977]}, "properties": {"name": "Roseng\u00e5rdscenteret - Lilla indgang E P-k\u00e6lder", "link": "http://www.uppladdning.nu/SiteDetail.aspx?id=7791711e-9a33-41ff-860d-32aaff63a584", "type": "Public", "description": null}}, {"type": "Feature", "geometry": {"type": "Point", "coordinates": [12.524897, 55.68351]}, "properties": {"name": "Thur\u00f8vej - Frederiksberg", "link": "http://www.uppladdning.nu/SiteDetail.aspx?id=0604428a-cf7f-4d9f-82e0-8c08ad278858", "type": "Public", "description": null}}, {"type": "Feature", "geometry": {"type": "Point", "coordinates": [12.190959, 55.76631]}, "properties": {"name": "Stenl\u00f8se St.", "link": "http://www.uppladdning.nu/SiteDetail.aspx?id=aafa6be6-f16e-4aa3-905d-df083e4e27a3", "type": "Public", "description": null}}, {"type": "Feature", "geometry": {"type": "Point", "coordinates": [12.493163, 55.746937]}, "properties": {"name": "Buddinge Station", "link": "http://www.uppladdning.nu/SiteDetail.aspx?id=435bd5be-1850-4a7d-a079-fae707e0940a", "type": "Public", "description": null}}, {"type": "Feature", "geometry": {"type": "Point", "coordinates": [12.184429, 55.779602]}, "properties": {"name": "Egedal St.", "link": "http://www.uppladdning.nu/SiteDetail.aspx?id=e540563e-5e1f-4214-93b7-e8215182b461", "type": "Public", "description": null}}, {"type": "Feature", "geometry": {"type": "Point", "coordinates": [11.872374, 54.77006]}, "properties": {"name": "Cementen Nyk\u00f8bing F", "link": "http://www.uppladdning.nu/SiteDetail.aspx?id=20501dde-4941-40e5-87a0-ff081784a990", "type": "Public", "description": null}}, {"type": "Feature", "geometry": {"type": "Point", "coordinates": [12.541618, 55.716022]}, "properties": {"name": "Bispebjerg Hospital (Bygning C)", "link": "http://www.uppladdning.nu/SiteDetail.aspx?id=6a571e55-b384-4f38-b8a5-cf6f5c4236ec", "type": "Public", "description": null}}, {"type": "Feature", "geometry": {"type": "Point", "coordinates": [12.563235, 55.691826]}, "properties": {"name": "Blegdamsvej - K\u00f8benhavn", "link": "http://www.uppladdning.nu/SiteDetail.aspx?id=adebeefe-56bb-44e6-876d-ce3a35b0269b", "type": "Public", "description": null}}, {"type": "Feature", "geometry": {"type": "Point", "coordinates": [12.470408, 55.811108]}, "properties": {"name": "Holte Midtpunkt", "link": "http://www.uppladdning.nu/SiteDetail.aspx?id=2dbceb73-96b5-47eb-93b3-cc19ad000ff1", "type": "Public", "description": null}}, {"type": "Feature", "geometry": {"type": "Point", "coordinates": [9.828174, 56.627087]}, "properties": {"name": "Eurowind Energy A/S", "link": "http://www.uppladdning.nu/SiteDetail.aspx?id=2486da76-1320-4252-aa24-95bb8060157b", "type": "Public", "description": null}}, {"type": "Feature", "geometry": {"type": "Point", "coordinates": [10.450926, 55.074116]}, "properties": {"name": "GO2Green Vester Skerninge", "link": "http://www.uppladdning.nu/SiteDetail.aspx?id=76d0c546-e3a7-4eb1-873c-dbcd0dfd4d8e", "type": "Public", "description": null}}, {"type": "Feature", "geometry": {"type": "Point", "coordinates": [10.874394, 56.414986]}, "properties": {"name": "Grenaa R\u00e5dhusparkeringen", "link": "http://www.uppladdning.nu/SiteDetail.aspx?id=f1e4950a-d020-4427-860d-7bd225872ab5", "type": "Public", "description": null}}, {"type": "Feature", "geometry": {"type": "Point", "coordinates": [11.861662, 54.778297]}, "properties": {"name": "Nyk\u00f8bing F. Sygehus", "link": "http://www.uppladdning.nu/SiteDetail.aspx?id=571bc95e-d58e-4e3f-ab2f-c5d55c66765d", "type": "Public", "description": null}}, {"type": "Feature", "geometry": {"type": "Point", "coordinates": [10.790385, 55.3098]}, "properties": {"name": "Vesterhavnen - Nyborg", "link": "http://www.uppladdning.nu/SiteDetail.aspx?id=e21ec2dc-11fd-468b-86eb-a0cb32c20b63", "type": "Public", "description": null}}, {"type": "Feature", "geometry": {"type": "Point", "coordinates": [12.537514, 55.67444]}, "properties": {"name": "Amicisvej - Frederiksberg", "link": "http://www.uppladdning.nu/SiteDetail.aspx?id=70569d64-1c03-4118-9204-f34cf4875d91", "type": "Public", "description": null}}, {"type": "Feature", "geometry": {"type": "Point", "coordinates": [12.023826, 55.25907]}, "properties": {"name": "R\u00f8nnede R\u00e5dhus", "link": "http://www.uppladdning.nu/SiteDetail.aspx?id=1dc6ed1d-f67e-42ca-9747-3c1beeebfe88", "type": "Public", "description": null}}, {"type": "Feature", "geometry": {"type": "Point", "coordinates": [9.676927, 57.210655]}, "properties": {"name": "Bredgade", "link": "http://www.uppladdning.nu/SiteDetail.aspx?id=b87158a5-d8f3-4af3-911e-a38cc07ee8ac", "type": "Public", "description": null}}, {"type": "Feature", "geometry": {"type": "Point", "coordinates": [9.521691, 57.09455]}, "properties": {"name": "L\u00e6gehuset - Sygehusvej", "link": "http://www.uppladdning.nu/SiteDetail.aspx?id=06d37cf6-e7f7-483f-8aab-2a3916fdcf6f", "type": "Public", "description": null}}, {"type": "Feature", "geometry": {"type": "Point", "coordinates": [12.56944, 55.67613]}, "properties": {"name": "R\u00e5dhuspladsen", "link": "http://www.uppladdning.nu/SiteDetail.aspx?id=39a6d7d9-20bc-4f08-81f0-b6aa117747bc", "type": "Public", "description": null}}, {"type": "Feature", "geometry": {"type": "Point", "coordinates": [12.52621, 55.64766]}, "properties": {"name": "Hammelstrupvej", "link": "http://www.uppladdning.nu/SiteDetail.aspx?id=22b9794b-be1f-484f-9946-ccd8ae849d45", "type": "Public", "description": null}}, {"type": "Feature", "geometry": {"type": "Point", "coordinates": [12.07904, 55.64005]}, "properties": {"name": "Schmeltz Plads", "link": "http://www.uppladdning.nu/SiteDetail.aspx?id=6ca53c27-1ca1-4634-8d21-911ed9b0605b", "type": "Public", "description": null}}, {"type": "Feature", "geometry": {"type": "Point", "coordinates": [12.55602, 55.68223]}, "properties": {"name": "Herman Triers plads ", "link": "http://www.uppladdning.nu/SiteDetail.aspx?id=b2b40bf4-b66d-413d-bde6-026fedea2e30", "type": "Public", "description": null}}, {"type": "Feature", "geometry": {"type": "Point", "coordinates": [10.81107, 55.31828]}, "properties": {"name": "Best Western - Nyborg Strand", "link": "http://www.uppladdning.nu/SiteDetail.aspx?id=9234b405-59d2-49d6-aea7-39fd5ad0cdee", "type": "Public", "description": null}}, {"type": "Feature", "geometry": {"type": "Point", "coordinates": [9.941859, 57.221954]}, "properties": {"name": "Vildmosen \u00d8st", "link": "http://www.uppladdning.nu/SiteDetail.aspx?id=87dfc23b-c0d9-4688-923f-d0ceecc79964", "type": "Public", "description": null}}, {"type": "Feature", "geometry": {"type": "Point", "coordinates": [9.47333, 55.48977]}, "properties": {"name": "Borchs G\u00e5rd", "link": "http://www.uppladdning.nu/SiteDetail.aspx?id=fea25ac1-7482-4ddf-b3fe-0b0111162a91", "type": "Public", "description": null}}, {"type": "Feature", "geometry": {"type": "Point", "coordinates": [12.06605, 55.83777]}, "properties": {"name": "Bakkestr\u00e6det", "link": "http://www.uppladdning.nu/SiteDetail.aspx?id=2dd8fb4b-3e14-4eb3-a020-92893b106f0f", "type": "Public", "description": null}}, {"type": "Feature", "geometry": {"type": "Point", "coordinates": [12.54468, 55.69387]}, "properties": {"name": "Husumgade", "link": "http://www.uppladdning.nu/SiteDetail.aspx?id=9dab61b8-dd07-40e6-9ded-bb183c049d59", "type": "Public", "description": null}}, {"type": "Feature", "geometry": {"type": "Point", "coordinates": [9.93721, 57.2226]}, "properties": {"name": "Vildmosen Vest", "link": "http://www.uppladdning.nu/SiteDetail.aspx?id=035af7aa-50ea-488c-a730-5795791ae159", "type": "Public", "description": null}}, {"type": "Feature", "geometry": {"type": "Point", "coordinates": [9.991883, 56.647476]}, "properties": {"name": "Havndalvej", "link": "http://www.uppladdning.nu/SiteDetail.aspx?id=b38290ca-2018-421b-b708-72a889795836", "type": "Public", "description": null}}, {"type": "Feature", "geometry": {"type": "Point", "coordinates": [12.575775, 55.74404]}, "properties": {"name": "Stigsborgs Brygge", "link": "http://www.uppladdning.nu/SiteDetail.aspx?id=526ba35c-cd01-41d3-8c2d-6f86535d0eac", "type": "Public", "description": null}}, {"type": "Feature", "geometry": {"type": "Point", "coordinates": [12.29658, 55.65284]}, "properties": {"name": "Taastrup Have", "link": "http://www.uppladdning.nu/SiteDetail.aspx?id=1c87edb4-9914-49a8-ad12-e6d8224eacf3", "type": "Public", "description": null}}, {"type": "Feature", "geometry": {"type": "Point", "coordinates": [10.125603, 56.110397]}, "properties": {"name": "Gunnar Clausens Vej", "link": "http://www.uppladdning.nu/SiteDetail.aspx?id=10769d32-01fa-4552-8a59-2e9bab60b7b6", "type": "Public", "description": null}}, {"type": "Feature", "geometry": {"type": "Point", "coordinates": [12.56478, 55.67109]}, "properties": {"name": "Reventlowsgade", "link": "http://www.uppladdning.nu/SiteDetail.aspx?id=de8669fd-ee71-4c27-b2e4-187d77ce6dd4", "type": "Public", "description": null}}, {"type": "Feature", "geometry": {"type": "Point", "coordinates": [12.37741, 55.81661]}, "properties": {"name": "Paltholmterrasserne", "link": "http://www.uppladdning.nu/SiteDetail.aspx?id=721119a1-3b14-41ce-abb9-b8c9e7fc9629", "type": "Public", "description": null}}, {"type": "Feature", "geometry": {"type": "Point", "coordinates": [9.712312, 55.52588]}, "properties": {"name": "Gammel F\u00e6rgevej", "link": "http://www.uppladdning.nu/SiteDetail.aspx?id=55f8501e-f9e4-42d9-9ac9-13b3ae2fb47e", "type": "Public", "description": null}}, {"type": "Feature", "geometry": {"type": "Point", "coordinates": [12.53723, 55.65479]}, "properties": {"name": "Sydhavn Station", "link": "http://www.uppladdning.nu/SiteDetail.aspx?id=9cacd4fd-524e-46bc-adc2-6de26dc65f4d", "type": "Public", "description": null}}, {"type": "Feature", "geometry": {"type": "Point", "coordinates": [8.237114, 56.08775]}, "properties": {"name": "Smed S\u00f8rensensvej", "link": "http://www.uppladdning.nu/SiteDetail.aspx?id=5702f72f-958c-4e3d-be37-bb78caf2d4c2", "type": "Public", "description": null}}, {"type": "Feature", "geometry": {"type": "Point", "coordinates": [10.03216, 56.46271]}, "properties": {"name": "Vestervold", "link": "http://www.uppladdning.nu/SiteDetail.aspx?id=de248c84-6b31-4727-af90-4f8ebeb987db", "type": "Public", "description": null}}, {"type": "Feature", "geometry": {"type": "Point", "coordinates": [10.19182, 56.16933]}, "properties": {"name": "Jens Baggesens Vej", "link": "http://www.uppladdning.nu/SiteDetail.aspx?id=b2887c7c-10d6-4550-9971-e4efef5a462b", "type": "Public", "description": null}}, {"type": "Feature", "geometry": {"type": "Point", "coordinates": [12.52538, 55.65231]}, "properties": {"name": "Sj\u00e6l\u00f8r Station", "link": "http://www.uppladdning.nu/SiteDetail.aspx?id=6222d8d2-3e1f-4cfe-9ff1-f6cbd8502591", "type": "Public", "description": null}}, {"type": "Feature", "geometry": {"type": "Point", "coordinates": [12.49567, 55.67184]}, "properties": {"name": "Skellet", "link": "http://www.uppladdning.nu/SiteDetail.aspx?id=3059fbe7-78e9-44aa-902c-9fe3909c557f", "type": "Public", "description": null}}, {"type": "Feature", "geometry": {"type": "Point", "coordinates": [11.1419, 54.8301]}, "properties": {"name": "Kr\u00f8yers G\u00e5rd ", "link": "http://www.uppladdning.nu/SiteDetail.aspx?id=4b4a0e92-6e09-41b3-a25d-dd9882628cbc", "type": "Public", "description": null}}, {"type": "Feature", "geometry": {"type": "Point", "coordinates": [9.400002, 56.458122]}, "properties": {"name": "Prinsens all\u00e9", "link": "http://www.uppladdning.nu/SiteDetail.aspx?id=aa642e17-57be-45d2-8626-6f6339343f1c", "type": "Public", "description": null}}, {"type": "Feature", "geometry": {"type": "Point", "coordinates": [10.18349, 56.13985]}, "properties": {"name": "S\u00f8nderport", "link": "http://www.uppladdning.nu/SiteDetail.aspx?id=226e56bd-e2ed-46b0-9876-8f1286033bcc", "type": "Public", "description": null}}, {"type": "Feature", "geometry": {"type": "Point", "coordinates": [12.50963, 55.66632]}, "properties": {"name": "Horsekildevej", "link": "http://www.uppladdning.nu/SiteDetail.aspx?id=ba0ac93e-7677-4c35-b5d5-497750791299", "type": "Public", "description": null}}, {"type": "Feature", "geometry": {"type": "Point", "coordinates": [10.18622, 56.16664]}, "properties": {"name": "Helge Rodes vej", "link": "http://www.uppladdning.nu/SiteDetail.aspx?id=8b79e1e7-ef02-4af2-bb7b-ca6ae83b08d3", "type": "Public", "description": null}}, {"type": "Feature", "geometry": {"type": "Point", "coordinates": [8.41633, 56.75242]}, "properties": {"name": "Sundhedshus Hurup", "link": "http://www.uppladdning.nu/SiteDetail.aspx?id=ef416b6c-f1e3-4faf-b575-674db43752e3", "type": "Public", "description": null}}, {"type": "Feature", "geometry": {"type": "Point", "coordinates": [11.35007, 55.4037]}, "properties": {"name": "H. P. Hansens Plads", "link": "http://www.uppladdning.nu/SiteDetail.aspx?id=761b5859-d86f-43dd-bfa3-fcfe0776e7e0", "type": "Public", "description": null}}, {"type": "Feature", "geometry": {"type": "Point", "coordinates": [12.59947, 55.66493]}, "properties": {"name": "Holl\u00e6nderdybet", "link": "http://www.uppladdning.nu/SiteDetail.aspx?id=b80fc512-50a4-442d-99df-9ec9e71c66d4", "type": "Public", "description": null}}, {"type": "Feature", "geometry": {"type": "Point", "coordinates": [12.58072, 55.70669]}, "properties": {"name": "Koldinggade", "link": "http://www.uppladdning.nu/SiteDetail.aspx?id=f08414aa-7d54-44a8-8f0b-ecba121f087e", "type": "Public", "description": null}}, {"type": "Feature", "geometry": {"type": "Point", "coordinates": [9.546611, 55.709263]}, "properties": {"name": "Bardenflethsgade", "link": "http://www.uppladdning.nu/SiteDetail.aspx?id=cd6c4713-40e8-4042-b65b-c68b7b350f8b", "type": "Public", "description": null}}, {"type": "Feature", "geometry": {"type": "Point", "coordinates": [12.14078, 55.600613]}, "properties": {"name": "Abildg\u00e5rdsvej", "link": "http://www.uppladdning.nu/SiteDetail.aspx?id=6fdc4cc2-25ce-437c-8ee0-9e0986d36ba6", "type": "Public", "description": null}}, {"type": "Feature", "geometry": {"type": "Point", "coordinates": [12.43604, 55.72553]}, "properties": {"name": "Herlev Bygade", "link": "http://www.uppladdning.nu/SiteDetail.aspx?id=bce28138-a3af-4464-8161-c6da184ceebd", "type": "Public", "description": null}}, {"type": "Feature", "geometry": {"type": "Point", "coordinates": [12.606806, 55.662666]}, "properties": {"name": "Frankrigshusene", "link": "http://www.uppladdning.nu/SiteDetail.aspx?id=783dfd75-e9cf-49fc-8e4b-f26242a659d4", "type": "Public", "description": null}}, {"type": "Feature", "geometry": {"type": "Point", "coordinates": [8.698621, 56.957115]}, "properties": {"name": "Solbakkevej", "link": "http://www.uppladdning.nu/SiteDetail.aspx?id=f144163f-6c45-4529-9843-379cdad74a3c", "type": "Public", "description": null}}, {"type": "Feature", "geometry": {"type": "Point", "coordinates": [9.99839, 57.45007]}, "properties": {"name": "Sygehus Vendsyssel", "link": "http://www.uppladdning.nu/SiteDetail.aspx?id=1c279ad7-11e1-49d1-af4d-758e865eec3e", "type": "Public", "description": null}}, {"type": "Feature", "geometry": {"type": "Point", "coordinates": [12.483261, 55.66816]}, "properties": {"name": "Hansstedsvej", "link": "http://www.uppladdning.nu/SiteDetail.aspx?id=111da8ee-090c-4155-88d2-26bd5f57b7c4", "type": "Public", "description": null}}, {"type": "Feature", "geometry": {"type": "Point", "coordinates": [12.51163, 55.6792]}, "properties": {"name": "P.G. Ramms all\u00e9", "link": "http://www.uppladdning.nu/SiteDetail.aspx?id=fc0b4f93-51a0-443b-80e1-034975b1f508", "type": "Public", "description": null}}, {"type": "Feature", "geometry": {"type": "Point", "coordinates": [12.51555, 55.68365]}, "properties": {"name": "Dalgas Have (CBS)", "link": "http://www.uppladdning.nu/SiteDetail.aspx?id=9cab0770-9034-4f85-a396-337da78f6df9", "type": "Public", "description": null}}, {"type": "Feature", "geometry": {"type": "Point", "coordinates": [9.47952, 55.49244]}, "properties": {"name": "Ejlersvej", "link": "http://www.uppladdning.nu/SiteDetail.aspx?id=7e0c5793-5af1-490e-8d5d-7bf44a39200f", "type": "Public", "description": null}}, {"type": "Feature", "geometry": {"type": "Point", "coordinates": [9.78816, 54.91145]}, "properties": {"name": "Kirke Alle", "link": "http://www.uppladdning.nu/SiteDetail.aspx?id=855224d8-8b0d-408c-b6bf-d99271528a5d", "type": "Public", "description": null}}, {"type": "Feature", "geometry": {"type": "Point", "coordinates": [12.53455, 55.69271]}, "properties": {"name": "Ane Katrines Vej", "link": "http://www.uppladdning.nu/SiteDetail.aspx?id=a32ec28a-ffc7-41c9-a1ae-bc407264edde", "type": "Public", "description": null}}, {"type": "Feature", "geometry": {"type": "Point", "coordinates": [10.57732, 57.71988]}, "properties": {"name": "Hans Baghs vej", "link": "http://www.uppladdning.nu/SiteDetail.aspx?id=ec439035-1cdd-4972-8241-e405125e94a0", "type": "Public", "description": null}}, {"type": "Feature", "geometry": {"type": "Point", "coordinates": [12.55619, 55.6842]}, "properties": {"name": "Bl\u00e5g\u00e5rdsgade", "link": "http://www.uppladdning.nu/SiteDetail.aspx?id=da3ca7a2-a6a6-4032-8f00-1eac109b0836", "type": "Public", "description": null}}, {"type": "Feature", "geometry": {"type": "Point", "coordinates": [10.061949, 57.0471]}, "properties": {"name": "Vejdybet", "link": "http://www.uppladdning.nu/SiteDetail.aspx?id=7bdbe235-614b-4cd4-ae84-6c71d1aa2014", "type": "Public", "description": null}}, {"type": "Feature", "geometry": {"type": "Point", "coordinates": [12.349338, 55.655613]}, "properties": {"name": "Liljens Kvarter", "link": "http://www.uppladdning.nu/SiteDetail.aspx?id=0362be21-466b-4a8a-a23f-05a037507229", "type": "Public", "description": null}}, {"type": "Feature", "geometry": {"type": "Point", "coordinates": [9.635119, 56.98468]}, "properties": {"name": "Gr\u00f8nnegade", "link": "http://www.uppladdning.nu/SiteDetail.aspx?id=7fa27488-94f2-4a57-9d48-0ab6ede9c8e3", "type": "Public", "description": null}}, {"type": "Feature", "geometry": {"type": "Point", "coordinates": [12.51299, 55.75495]}, "properties": {"name": "Circle K Gentofte", "link": "http://www.uppladdning.nu/SiteDetail.aspx?id=f9ea3ca6-09a3-444a-9ad0-a0eaa8ce354f", "type": "Public", "description": null}}, {"type": "Feature", "geometry": {"type": "Point", "coordinates": [12.51638, 55.75822]}, "properties": {"name": "Dong Energy", "link": "http://www.uppladdning.nu/SiteDetail.aspx?id=6f56368b-623a-4cc6-818d-dc64b54d3347", "type": "Public", "description": null}}, {"type": "Feature", "geometry": {"type": "Point", "coordinates": [12.55756, 55.66532]}, "properties": {"name": "Dybb\u00f8lsgade", "link": "http://www.uppladdning.nu/SiteDetail.aspx?id=0dfa8634-5a07-4588-bb6e-41ccc9671484", "type": "Public", "description": null}}, {"type": "Feature", "geometry": {"type": "Point", "coordinates": [12.521725, 55.687523]},